地區,大廈名單,name,lat,lng
中西區,僑發大廈,僑發大廈,22.2866074,114.1463971
中西區,勵精中心 (非住宅),勵精中心,22.2831406,114.1551291
中西區,城紫蘭樓,紫蘭樓,22.2819117,114.1309879
中西區,堅尼地城社區綜合大樓 (非住宅),堅尼地城社區綜合大樓,22.281904,114.12908
中西區,寶翠閣B座,寶翠閣A座,22.2850662,114.1319268
中西區,康威花園A座,康威花園,22.287179,114.1497071
中西區,怡和大廈 (非住宅),怡和大廈,22.2829926,114.1592393
中西區,歷山大廈 (非住宅),星巴克,22.281453,114.1584445
中西區,永和街和興商業大廈 (非住宅),和興商業大廈,22.2850509,114.1538039
中西區,海富中心1座 (非住宅),海富中心寫字樓1座,22.279499,114.1647831
中西區,統一中心 (非住宅),統一中心,22.2784312,114.1654177
中西區,置地廣塲 (非住宅),置地廣塲中庭,22.2806759,114.1576919
中西區,美菲閣2座,美菲閣2座,22.2820974,114.1277945
中西區,翰林軒1座,翰林軒1座,22.2815797,114.1302563
中西區,聯友新樓 佳記餐廳 (非住宅),佳記餐廳,22.2824096,114.1277172
中西區,聯發商業中心 (非住宅),聯發商業中心,22.2862617,114.1484023
中西區,萬安商業大廈 (非住宅),順安商業大廈,22.284352,114.155289
中西區,西環邨中苑臺,西環邨中苑臺,22.2809938,114.1259366
中西區,誠利商場 (非住宅),誠利商塲,22.285012,114.153821
九龍城,九龍城道151號,浩明雅苑,22.3208477,114.1899509
九龍城,九龍城道157-159號寶成洋樓,救世軍九龍城家庭支援中心,22.32122,114.190148
九龍城,何文田邨欣文樓,欣文樓,22.314914,114.181911
九龍城,何文田邨綺文樓,綺文樓,22.316301,114.182616
九龍城,何文田邨適文樓,何文田邨適文樓,22.31494,114.183085
九龍城,偉恆昌新村恆景閣 (非住宅),恆景閣I座,22.3178157,114.1929349
九龍城,偉華園,偉華園,22.3264469,114.1811016
九龍城,唯一大廈 (非住宅),唯一大廈,22.3156637,114.1886157
九龍城,土瓜灣定安大廈 (非住宅),定安大廈H座,22.3176162,114.1899605
九龍城,土瓜灣立基大廈,立基大廈,22.320793,114.189712
九龍城,土瓜灣街市 (非住宅),土瓜灣街市,22.3172238,114.1880992
九龍城,大龍樓,大龍樓,22.316448,114.189482
九龍城,天鑄1期7座,天鑄,22.3118621,114.1820435
九龍城,奧斯酒店,奧斯酒店 O' Hotel,22.316882,114.188499
九龍城,定安大廈,定安大廈H座,22.3176162,114.1899605
九龍城,家維邨家邦樓,家維邨5座家邦樓,22.3083416,114.1868984
九龍城,寶成洋樓,寶成洋樓,22.3211842,114.1901449
九龍城,崇廉樓,崇廉樓,22.311372,114.189108
九龍城,嶺南大廈,嶺南大廈,22.3168848,114.1893699
九龍城,工業貿易大樓 (非住宅),工業貿易大樓,22.3325978,114.1978205
九龍城,德朗邨德珊樓,德朗邨德珊樓,22.32985,114.2042924
九龍城,德朗邨德琦樓,德朗邨德琦樓,22.3294094,114.203988
九龍城,德朗邨德瑞樓,德朗邨德瑞樓,22.3288432,114.2037094
九龍城,德朗邨德瑩樓,德朗邨德瑩樓,22.3297452,114.2029663
九龍城,德朗邨德璋樓,德朗邨德璋樓,22.3293706,114.2032682
九龍城,德豐樓,德豐樓,22.3299323,114.1919828
九龍城,愛民邨信民樓,九龍城區青少年外展社會工作隊,22.312223,114.179887
九龍城,愛民邨嘉民樓,九龍城區青少年外展社會工作隊,22.312223,114.179887
九龍城,播道醫院 (非住宅),播道醫院,22.3251652,114.1869162
九龍城,旺德大廈,朋德大廈,22.329672,114.190853
九龍城,春田街福運大廈,中銀九龍城大樓,22.32875,114.189709
九龍城,浩明雅苑,浩明雅苑停車場,22.320832,114.189934
九龍城,海濱南岸6座,海濱南岸,22.3033333,114.1863889
九龍城,海逸豪園20座,海逸豪園,22.3075221,114.1926942
九龍城,海逸豪園3期12A座,海逸豪園悅濤灣12A座,22.308971,114.192679
九龍城,海逸豪園3期悅濤灣8座,海逸豪園悅濤灣12A座,22.308971,114.192679
九龍城,海逸豪園8座,海逸豪園,22.3075221,114.1926942
九龍城,港圖灣,港圖灣,22.3158664,114.1914062
九龍城,溫思勞街19號,紅磡溫思勞街19號,22.307211,114.182449
九龍城,獅子石道17號 (非住宅),九龍城獅子石道17號,22.3282026,114.188033
九龍城,碧華花園3座,碧華花園,22.32743,114.183488
九龍城,福運大廈,中銀九龍城大樓,22.32875,114.189709
九龍城,紅磡海逸豪園20座,海逸豪園,22.3075221,114.1926942
九龍城,美景街2號美景樓一期,美景樓一期,22.3161111,114.1908333
九龍城,聖德肋撒醫院 (非住宅),聖德肋撒醫院,22.3262591,114.184829
九龍城,衙前圍道122號,九龍城衙前圍道122號,22.3290752,114.1883313
九龍城,雅麗居2座,雅麗居,22.323282,114.1825015
九龍城,露明道4號,露明道4-6號,22.3257706,114.1857595
九龍城,馬頭圍邨芙蓉樓,民社服務中心「九龍城食物回收助人計劃」聯絡處,22.3235842,114.1866106
九龍城,黃埔天地 博藝會 (非住宅),ClubONE 博藝會,22.304951,114.190859
九龍城,黃埔花園4期6座,黃埔花園,22.3047355,114.1902873
九龍城,黃埔花園4期棕櫚苑6座,黃埔花園棕櫚苑,22.303809,114.188853
九龍城,黃埔花園棕櫚苑1座,黃埔花園四期棕櫚苑1座,22.3041987,114.1881771
九龍城,黃埔花園棕櫚苑4期2座,黃埔花園棕櫚苑,22.303809,114.188853
九龍城,黃埔花園棕櫚苑4期6座,黃埔花園棕櫚苑,22.303809,114.188853
九龍城,黃埔花園棕櫚苑4期棕櫚苑6座,黃埔花園棕櫚苑,22.303809,114.188853
九龍城,黃埔花園棕櫚苑6座,黃埔花園棕櫚苑,22.303809,114.188853
九龍城,黃埔花園紫荊苑11期5座,黃埔花園十一期紫荊苑,22.305919,114.190339
九龍城,黃埔號 (非住宅),黃埔花園,22.3047355,114.1902873
九龍城,黃埔街18號,黃埔街18號,22.306145,114.184875
九龍城,龍譽 2B 座,龍譽,22.3280588,114.2006396
九龍城,龍譽2B座,龍譽,22.3280588,114.2006396
元朗,交通廣場 百份百餐廳 (非住宅),百分百餐廳,22.4436659,114.0321195
元朗,俊宏軒4座,俊宏軒4座,22.4696225,114.0013422
元朗,元朗安寧路順興樓,順興樓,22.4457579,114.0295133
元朗,元朗廣場 (非住宅),元朗廣場,22.4448907,114.0239001
元朗,加州花園紅花徑,新田紅花徑,22.487752,114.050281
元朗,嘉湖山莊翠湖居1座,嘉湖山莊翠湖居1座,22.4574914,113.9990903
元朗,塘坊村,塘坊村,22.4400592,114.0070215
元朗,塘坊村8號,屏山傳統盆菜,22.4437725,114.007266
元朗,塘頭埔村,塘頭埔村,22.425595,114.038241
元朗,壆圍村,壆圍村,22.465756,114.052627
元朗,天恩邨恩穗樓,天恩邨恩穗樓,22.4632879,113.9954183
元朗,天慈邨天麗苑 (非住宅),天慈邨,22.452839,114.0082487
元朗,天晴邨晴喜樓,天晴邨晴喜樓,22.4639359,114.0051753
元朗,天晴邨晴悅樓,天晴邨晴悅樓,22.4633976,114.0052682
元朗,天澤邨澤星樓,天澤邨,22.4672846,113.9975793
元朗,天盛苑盛彩閣,天盛苑A座盛彩閣,22.4480296,114.002659
元朗,天盛苑盛賢閣,天盛苑D座盛賢閣,22.4479376,114.0014584
元朗,天耀邨耀澤樓,天耀(二)邨8座耀澤樓,22.4528234,114.0042461
元朗,天頌苑頌波閣,天頌苑K座頌波閣,22.4607407,113.9977414
元朗,好景洋樓,好景洋樓,22.4420548,114.0316577
元朗,宏豐大廈 (非住宅),宏豐大廈,22.4440144,114.030858
元朗,屏山坑頭村,坑頭村,22.445566,114.00909
元朗,屏欣苑屏彥閣,屏欣苑,22.4455411,114.0034577
元朗,峻巒1B期7B座,峻巒,22.4512757,114.0533427
元朗,康德閣,康德閣,22.4428566,114.0293347
元朗,形點II 茶木 (非住宅),TeaWood Taiwanese Cafe & Restaurant,22.445391,114.0351247
元朗,新時代廣場8座,中原地產 - 元朗新時代廣場第三分行,22.44385,114.033596
元朗,朗善邨善愛樓,朗善邨善愛樓,22.441767,114.0451306
元朗,水邊圍邨山水樓 (非住宅),水邊圍邨,22.4454796,114.0200642
元朗,永泰樓,永泰樓,22.4427108,114.0251301
元朗,洪福邨洪昌樓,Hung Cheong House Hung Fuk Estate,22.4385286,113.9969051
元朗,洪福邨洪盛樓,洪福邨洪盛樓,22.4379394,113.9970444
元朗,白沙村,白沙村,22.424387,114.022282
元朗,錦上路謝屋村,錦上路,22.4282114,114.0834289
元朗,錦安花園40座,錦安花園,22.4369975,114.0653741
元朗,鳳池村,鳳池村,22.44818,114.019772
元朗,鴻發大樓,鴻發大樓,22.4428897,114.0241313
北區,上水圍,上水圍上北村公廁,22.510582,114.125547
北區,北區運動場 (非住宅),北區運動場,22.5063119,114.1305155
北區,古洞燕崗村,燕崗村,22.504387,114.111056
北區,大元村,大元村,22.509368,114.12554
北區,天平邨天美樓,天平邨天美樓,22.5016284,114.133949
北區,富榮大廈,富榮大廈,22.5049619,114.1295596
北區,帝庭軒2座,帝庭軒購物商場,22.5003493,114.1437134
北區,彩園廣場 (非住宅),彩園商場,22.5014606,114.1264366
北區,彩園廣場 大家樂 (非住宅),大家樂,22.5033698,114.1264664
北區,彩園邨彩湖樓,彩園邨彩湖樓,22.5006282,114.124845
北區,彩園邨彩華樓,彩華樓,22.4998273,114.1265198
北區,慧雯花園,慧雯花園,22.503997,114.112207
北區,新健街19號,上水新健街19號,22.5056767,114.1277715
北區,新屋嶺村,新屋嶺練靶場,22.53134,114.128953
北區,旭埔苑清湖閣,旭埔苑清湖閣,22.5006495,114.1270514
北區,松柏塱,Tsung Pak Long,22.500895,114.1182555
北區,榮福中心2座,榮福中心,22.5011199,114.1415615
北區,永寧村,永寧籃球場,22.5009877,114.1511485
北區,深圳灣出入境管制站 (非住宅),深圳灣管制站,22.499256,113.944533
北區,祥華邨祥景樓,祥華邨祥景樓,22.4927783,114.1423329
北區,粉嶺名都富臨閣,粉嶺名都富臨閣,22.49297,114.1390583
北區,粉嶺圍,粉嶺圍,22.497335,114.135187
北區,綠悠軒5座,綠悠軒5座,22.5015235,114.1446553
北區,翠麗花園1座,翠麗花園1座,22.5080653,114.1295132
北區,雍盛苑雍萃閣,雍盛苑,22.4824191,114.1372606
北區,龍豐花園 稻香 (非住宅),稻香超級漁港,22.5032162,114.1297871
北區,龍豐花園A座,龍豐花園A座,22.5030936,114.1297919
南區,利東邨東安樓,利東邨東安樓,22.2406418,114.156987
南區,東華三院賽馬會復康中心B座 (非住宅),東華三院賽馬會復康中心,22.2466578,114.1636524
南區,海怡半島4期26座,海怡半島四期26座御盈居,22.242714,114.1497645
南區,漁光村順風樓,漁光邨順風樓,22.2509464,114.1568941
南區,田灣邨田麗樓,田灣邨田麗樓,22.2524909,114.1515063
南區,石排灣邨碧園樓,石排灣邨5座碧園樓,22.2493759,114.1580088
南區,石排灣邨碧月樓,石排灣邨2座碧月樓,22.248953,114.157267
南區,石排灣邨碧綠樓,石排灣邨7座碧綠樓,22.2486203,114.157823
南區,華富(二)邨華翠樓,華富(二)邨華翠樓,22.2538524,114.1361786
南區,華富1邨華光樓,華富(一)邨華光樓,22.2497782,114.1372701
南區,華富邨(二)華翠樓,華富邨華翠樓,22.254018,114.136384
南區,華富邨華泰樓,華富邨華泰樓,22.251745,114.136285
南區,華富邨華翠樓,華富邨華翠樓,22.254143,114.136462
南區,香港仔中心海龍閣,香港仔中心海龍閣,22.2481762,114.1538518
南區,香港瑞思酒店,香港瑞思酒店,22.2499239,114.1476247
南區,黃竹坑南朗山道29號,黃竹坑南朗山道29號,22.2438871,114.16616
大埔,塘面村,塘面村,22.451568,114.137453
大埔,大元邨泰樂樓,大元邨泰樂樓,22.4557911,114.1695273
大埔,大南樓,大南樓,22.453072,114.164742
大埔,大埔中心19座,大埔中心19座,22.4535214,114.1719292
大埔,大埔中心1座,大埔中心1座,22.4524695,114.1686031
大埔,大埔中心1期1座,大埔中心,22.4516729,114.1692843
大埔,大埔中心一期1座,大埔中心,22.4516729,114.1692843
大埔,大埔廣場宜德閣,大埔廣場宜德閣,22.4528498,114.1704804
大埔,大宏街1-3號 (非住宅),大埔工業邨大宏街1-3號,22.4585496,114.1815563
大埔,宏福苑宏盛閣,宏福苑宏盛閣,22.4468512,114.1762849
大埔,富亨邨亨昌樓,富亨邨3座亨昌樓,22.4570232,114.1711064
大埔,富善邨善美樓,富善邨善美樓,22.4548922,114.1757508
大埔,帝欣苑30座,帝欣苑30座,22.4537867,114.1556168
大埔,廣褔邨廣祐樓,廣福邨廣祐樓,22.4479733,114.1747058
大埔,新峰花園19座,新峰花園,22.4419365,114.1609344
大埔,新達廣場 6 座,新達廣場6座,22.4440501,114.1687841
大埔,新達廣場6座,新達廣場6座,22.4440501,114.1687841
大埔,汀角路下坑,汀角路,22.4599724,114.2009744
大埔,汀角路下坑村,下坑村公廁,22.462748,114.186001
大埔,汀角路第6約1211S.D.地段大南樓地下A、B、C、D及E舖及四樓A室,康和護老中心 - 大埔,22.453045,114.164791
大埔,海日灣海曦閣B2,海日灣 The Horizon,22.4302211,114.2074882
大埔,美心食品廠 (非住宅),美心食品廠,22.4597584,114.184645
大埔,翠樂街8號 (非住宅),富萊花園一期金棠閣,22.4536243,114.1646273
大埔,荔枝山村,荔枝山,22.438383,114.164849
大埔,西澳村,西澳村大榕樹停車場,22.4299614,114.2536115
大埔,運頭塘邨運亨樓,運頭塘邨運亨樓,22.441876,114.165302
大埔,運頭塘邨運來樓,運來樓,22.442696,114.1687461
大埔,運頭塘邨運臨樓,運頭塘邨2座運臨樓,22.44229,114.168221
大埔,龍尾村,龍尾村,22.47291,114.228474
屯門,V-city 八月花 (非住宅),八月花 (屯門) Jasmine (Tuen Mun),22.3961045,113.9739664
屯門,三聖邨豐漁樓,三聖邨豐漁樓,22.3812751,113.977948
屯門,仁愛街市 (非住宅),仁愛街市,22.3878836,113.9800723
屯門,倚嶺南庭,倚嶺南庭,22.412407,113.9837095
屯門,兆康苑兆基閣,兆康苑兆基閣,22.4139906,113.9773672
屯門,兆康苑兆昌閣,兆康苑兆昌閣,22.4128847,113.9782965
屯門,兆畦苑兆富閣,兆畦苑兆富閣,22.4051502,113.9665177
屯門,兆禧苑順禧閣,兆禧苑順禧閣,22.3739569,113.9672611
屯門,兆麟苑嘉麟閣,兆麟苑F座嘉麟閣,22.3838102,113.976949
屯門,兆麟苑瑞麟閣,兆麟苑E座瑞麟閣,22.3838393,113.9773207
屯門,卓爾居3座,卓爾居一期3座,22.401569,113.974446
屯門,友愛邨愛信樓,友愛邨愛信樓,22.3861398,113.9725123
屯門,友愛邨愛勇樓 (非住宅),愛勇樓,22.387698,113.974436
屯門,友愛邨愛明樓,友愛邨愛明樓,22.3890987,113.9732783
屯門,友愛邨愛義樓 (非住宅),友愛邨愛義樓,22.3860783,113.9738914
屯門,友愛邨愛義樓,友愛邨愛義樓,22.3860783,113.9738914
屯門,嘉悅半島2座,嘉悅半島2座,22.38229,113.9727208
屯門,大欖涌村,大欖涌村,22.367531,114.022131
屯門,大欖涌村101號,大欖涌村,22.367531,114.022131
屯門,大興邨興平樓,大興邨興平樓,22.4042331,113.9718147
屯門,大興邨興泰樓,大興邨興泰樓,22.4035088,113.9701755
屯門,富健花園7座,富健花園7座,22.3829378,113.9664841
屯門,富健花園9座,富健花園9座,22.3827045,113.9658904
屯門,富泰邨秀泰樓,富泰邨秀泰樓,22.4130908,113.9832449
屯門,寶田中轉房屋2座,寶田邨,22.4106153,113.9668924
屯門,寶田邨1座,寶田邨第1座,22.4088203,113.9666338
屯門,小欖村22號,帝濤灣,22.367288,114.0129376
屯門,屯門市中心 定食8 (非住宅),定食8,22.3938074,113.9752716
屯門,屯門市廣場 太平洋咖啡 (非住宅),Pacific Coffee,22.39295,113.976649
屯門,屯門市廣場 牛一 (非住宅),牛一(屯門分店),22.3924645,113.977522
屯門,屯門市廣場 稻成小館 (非住宅),稻成小館,22.3927314,113.9780447
屯門,屯門市廣場1期 名點屋 (非住宅),名點屋,22.3925705,113.9779682
屯門,屯門時代廣場 (非住宅),屯門時代廣場,22.3921606,113.9758675
屯門,屯門時代廣場 ‎ 板長壽司 (非住宅),板長壽司,22.3929828,113.9754366
屯門,山景邨景業樓,山景邨景業樓,22.3988941,113.9663318
屯門,山景邨景樂樓,山景邨,22.3981329,113.9662423
屯門,山景邨景美樓,山景邨景美樓,22.3999416,113.9668894
屯門,山景邨景華樓,山景邨景華樓,22.3964498,113.9668894
屯門,康恩園,康恩園,22.4086417,113.9693056
屯門,建生邨康生樓,建生邨康生樓,22.4059027,113.9707692
屯門,建生邨泰生樓,建生邨泰生樓,22.4059245,113.9714662
屯門,彩華花園D座,彩華花園D座,22.3859158,113.9806429
屯門,怡峰園5座,怡峰園5座,22.3912949,113.9804338
屯門,恒福花園第７座,恒福花園,22.3829423,113.9772405
屯門,悅湖山莊4座,悅湖山莊4座,22.3742152,113.9688177
屯門,慎成大廈,慎成大廈,22.3955363,113.9753692
屯門,新墟村,新墟村,22.400717,113.979567
屯門,新慶村,新慶村,22.418435,113.979804
屯門,景峰花園5座,景峰花園5座,22.4035044,113.9803641
屯門,欣田邨悅田樓,欣田邨悅田樓,22.4143038,113.9764062
屯門,泥圍,泥圍站,22.423836,113.9865365
屯門,海慧花園,海慧花園1座,22.3766577,113.9828384
屯門,海慧花園1座,海慧花園1座,22.3766577,113.9828384
屯門,海翠花園1座,海翠花園1座,22.3728692,113.9657045
屯門,海趣坊 大快活 (非住宅),大快活,22.3727246,113.9656699
屯門,湖景邨湖暉樓,湖景邨湖暉樓,22.3775031,113.9656581
屯門,澤豐花園澤國樓,澤豐花園1座澤國樓,22.4040581,113.9751601
屯門,田景邨田敦樓,田景邨田敦樓,22.4067362,113.9658671
屯門,田景邨田樂樓,田景邨田樂樓,22.4073182,113.9649378
屯門,福亨村,福亨村,22.417833,113.991432
屯門,翠濤居3座,翠濤居3座,22.3810422,113.9799924
屯門,良景邨良俊樓,良景邨良俊樓,22.4053397,113.9608489
屯門,良景邨良偉樓,良景邨良偉樓,22.4045104,113.9611277
屯門,華都商場 轉角 (非住宅),轉角,22.3922595,113.9777846
屯門,藍地福亨村16號,屯門福亨村路16號,22.41846,113.9868028
屯門,蝴蝶廣場 (非住宅),Butterfly Plaza,22.3752484,113.9630632
屯門,蝴蝶邨蝶聚樓,蝴蝶邨蝶聚樓,22.3761825,113.9630792
屯門,豐景園5座,豐景園5座,22.3842541,113.972442
屯門,錦薈坊 (非住宅),錦薈坊 K-Point,22.39392,113.9754649
屯門,青山公路新墟段199號好勝大廈,好勝大廈,22.4040429,113.9791561
屯門,香港內河碼頭 建榮飯堂 (非住宅),大海建榮食堂,22.3965015,113.9683999
屯門,香港屯門貝爾特酒店 (非住宅),屯門貝爾特酒店,22.3958166,113.9719537
屯門,香港黃金海岸二期32座,香港黃金海岸21座,22.367872,113.993138
屯門,龍門居 (非住宅),龍門居,22.3847347,113.9665087
屯門,龍門居7座,匯豐銀行屯門龍門居ATM,22.3842294,113.9653914
東區,佳翠苑顯翠閣,佳翠苑A座顯翠閣,22.2620283,114.2508912
東區,健康邨三期棕樹樓,健康邨三期棕樹樓,22.290339,114.205796
東區,南方大廈 (非住宅),南方大廈,22.290023,114.194784
東區,城市花園8座,城市花園8座,22.2910284,114.193529
東區,城市花園商場 （城市中心） (非住宅),城市花園商場,22.2903516,114.1932553
東區,太古城中心第3期 (非住宅),太古城中心第3期,22.2878034,114.2168096
東區,太古城翠湖台鄱陽閣,太古城翠湖台鄱陽閣,22.284791,114.220846
東區,太安樓,太安樓; 筲箕灣道,22.2826313,114.2216679
東區,富澤花園富邦閣,富澤花園富邦閣,22.2875939,114.1937012
東區,富雅花園金楓閣,富雅花園金楓閣,22.290552,114.2042435
東區,小西灣邨瑞明樓,小西灣瑞喜樓,22.2608409,114.2489504
東區,小西灣邨瑞發樓,小西灣邨K座瑞發樓,22.2636153,114.2485694
東區,峻峰花園B座,峻峰花園,22.2788431,114.2290249
東區,得勝大廈 新釗記 (非住宅),新釗記,22.2920597,114.1994131
東區,愛東邨愛逸樓,愛東邨愛逸樓,22.2800474,114.2278582
東區,新成大樓,新成大樓,22.2794659,114.2256059
東區,明月大廈,明月大廈,22.2909837,114.1962555
東區,杏花邨第１座,杏花邨38座,22.2776836,114.240271
東區,東勝樓,東勝樓,22.2804645,114.2307374
東區,東欣苑歡欣閣,東欣苑A座歡欣閣,22.280457,114.221465
東區,東駿苑金駿閣,東駿苑金駿閣,22.277353,114.2222855
東區,柯達大廈2座 (非住宅),柯達大廈二座,22.2925569,114.2069603
東區,柴灣邨灣畔樓,柴灣邨灣畔樓,22.2641189,114.2420682
東區,樂軒臺5座,樂軒臺5座,22.2643484,114.2415806
東區,海山樓,海山樓,22.284192,114.2119749
東區,海峰園高峰閣 (非住宅),高峯閣,22.2880537,114.191585
東區,海澄大廈,海澄大廈,22.2799535,114.2233573
東區,濱海大廈,濱海大廈,22.2881456,114.2114254
東區,濱海街中興大廈,中興大廈,22.286503,114.21104
東區,環翠邨利翠樓,環翠邨利翠樓,22.2631461,114.2392587
東區,碧麗閣A座,碧麗閣,22.27958,114.224347
東區,耀東邨耀福樓,耀東邨耀福樓,22.2777897,114.2217282
東區,耀東邨耀興樓,耀東邨耀興樓,22.2765596,114.2245343
東區,耀東邨耀輝樓,耀東邨耀輝樓,22.2781043,114.2252576
東區,興東邨興祖樓,興東邨興祖樓,22.2815705,114.2193134
東區,興東邨興豐樓,興東邨興豐樓,22.2820349,114.2196849
東區,興華(一)邨興翠樓,興華(一)邨興翠樓,22.2627347,114.2348239
東區,藍灣廣場 (非住宅),Island Resort Mall,22.266226,114.2508984
東區,電氣道134號 (非住宅),銅鑼灣電氣道134號,22.2856124,114.191677
東區,高山台富山閣,太古城高山台富山閣,22.2859886,114.2183846
東區,高山臺富山閣,太古城高山台富山閣,22.2859886,114.2183846
沙田,世界花園龍柏閣,世界花園龍柏閣,22.3641658,114.1792109
沙田,乙明邨明恩樓,乙明邨明恩樓,22.3763026,114.1930278
沙田,乙明邨明耀樓,明耀樓,22.37737,114.191746
沙田,利安邨利興樓,利安邨1座利興樓,22.4260076,114.2418824
沙田,博康商場 (非住宅),博康邨,22.3754592,114.1956878
沙田,博康邨博泰樓,博康邨博泰樓,22.3767484,114.1957214
沙田,名城3期3座,名城三期,22.370148,114.176375
沙田,嘉順苑,Ka Shun Court,22.3616383,114.1743657
沙田,大圍嘉順苑,Ka Shun Court,22.3616383,114.1743657
沙田,富嘉花園2座,富嘉花園2座,22.3735192,114.1779569
沙田,廣源邨廣棉樓,廣源邨廣棉樓,22.3814546,114.2149595
沙田,恆安邨恆山樓,恆安邨恆山樓,22.4161286,114.2294371
沙田,恆安邨恆峰樓,恆安邨恆峰樓,22.4156363,114.2286941
沙田,恆峰花園3座,恆峰花園3座,22.3779757,114.1718263
沙田,恒峰花園3座,恆峰花園3座,22.3779757,114.1718263
沙田,愉田苑愉群閣,愉田苑愉群閣,22.3827951,114.2026877
沙田,愉田苑愉逸閣,愉田苑愉逸閣,22.3837644,114.203036
沙田,愉翠商場 君臨宴會廳 (非住宅),君臨宴會廳,22.3821795,114.2053945
沙田,新港城K座,新港城K座,22.4236818,114.230802
沙田,新港城中心(4期) (非住宅),新港城中心,22.4241633,114.2314688
沙田,新翠邨新儀樓,新翠邨新儀樓,22.3695946,114.1808597
沙田,新翠邨新月樓,新月樓,22.3703545,114.1803721
沙田,新翠邨新芳樓,新翠邨新芳樓,22.3714238,114.1819743
沙田,東華三院馮黃鳳亭中學 (非住宅),東華三院馮黃鳳亭中學,22.3847355,114.1928633
沙田,欣安邨欣喜樓,欣安邨,22.4140787,114.2254345
沙田,水泉澳邨映泉樓,水泉澳邨映泉樓,22.371632,114.1966502
沙田,水泉澳邨月泉樓,水泉澳邨月泉樓,22.3722854,114.1969289
沙田,水泉澳邨林泉樓,水泉澳邨林泉樓,22.3736739,114.1984062
沙田,沙角商場 大快活 (非住宅),大快活,22.3777752,114.1938257
沙田,海栢花園2座,海栢花園2座,22.425551,114.2321305
沙田,海福花園2座,海福花園,22.3733628,114.176216
沙田,濱景花園2座,濱景花園2座,22.3914909,114.2048936
沙田,瀝源商場 富東閣海鮮酒家 (非住宅),富東閣海鮮酒家,22.3848379,114.1920939
沙田,瀝源邨榮瑞樓,瀝源邨榮瑞樓一座,22.3837591,114.1911964
沙田,碧濤花園3期1座,沙田碧濤花園二期,22.3951462,114.2087449
沙田,碩門邨美碩樓,美碩樓,22.386297,114.2098398
沙田,禾輋廣場 金百滬 (非住宅),金百滬 (小籠包專門店),22.3883527,114.194839
沙田,禾輋邨富和樓,禾輋邨富和樓,22.3891241,114.1961626
沙田,積富樓 (非住宅),積富樓,22.3748629,114.178282
沙田,穗禾苑慶宏閣,穗禾苑,22.3938679,114.19446
沙田,美城苑暉城閣,美城苑暉城閣,22.3797609,114.1755651
沙田,美松苑盛松閣,美松苑D座盛松閣,22.380554,114.1726158
沙田,美松苑麗松閣,美松苑B座麗松閣,22.380512,114.173664
沙田,美林邨美楓樓,美林邨美楓樓,22.3773627,114.1758437
沙田,美柏苑,美柏苑,22.3784333,114.173533
沙田,美田邨美全樓,美田邨美全樓,22.3770045,114.1725926
沙田,美田邨美樂樓,美田邨美樂樓,22.3754652,114.1718495
沙田,美田邨美滿樓,美田邨美滿樓,22.3751587,114.1726855
沙田,耀安邨耀和樓,耀和樓,22.419797,114.230637
沙田,耀安邨耀平樓,耀安邨耀平樓,22.4188295,114.2299944
沙田,金禧商場 大家樂 (非住宅),大家樂,22.3746528,114.1776155
沙田,錦泰苑錦晶閣,錦泰苑G座錦晶閣,22.4074015,114.2207066
沙田,錦泰苑錦邦閣,錦泰苑B座錦邦閣,22.409082,114.2212406
沙田,錦豐苑錦萱閣,錦豐苑F座錦萱閣,22.421901,114.224821
沙田,錦豐苑錦葵閣,錦豐苑E座錦葵閣,22.4223274,114.224979
沙田,錦豐苑錦薇閣,錦豐苑G座錦薇閣,22.4210935,114.2245146
沙田,錦鞍苑銀鞍閣,錦鞍苑B座銀鞍閣,22.4165537,114.2260703
沙田,錦龍苑龍悅樓,錦龍苑A座龍悅閣,22.4260504,114.2406519
沙田,隆亨邨善心樓,隆亨邨善心樓,22.3655708,114.1774925
沙田,隆亨邨慧心樓,隆亨邨慧心樓,22.364754,114.177664
沙田,隆亨邨榮心樓,隆亨邨榮心樓,22.3686088,114.1793735
沙田,隆亨邨賞心樓,隆亨邨賞心樓,22.3651992,114.1781891
沙田,隔田村,隔田村南滘,22.367032,114.183494
沙田,隔田村公廟,沙田車公廟,22.373419,114.182831
沙田,雲疊花園6座,雲叠花園6座,22.3677116,114.1756795
沙田,雲疊花園商場 (非住宅),雲疊花園商場,22.368507,114.177542
沙田,頌安商場 百匯軒 (非住宅),百匯軒,22.4218194,114.2267911
沙田,頌安邨頌群樓,頌安邨頌群樓,22.4240523,114.2267437
沙田,顯徑邨顯富樓,顯徑邨顯富樓,22.3609613,114.1720353
沙田,顯徑邨顯慶樓,顯徑邨顯慶樓,22.3639097,114.1732428
沙田,顯耀邨顯耀樓,顯耀邨顯耀樓,22.3669305,114.1745433
油尖旺,一盛大廈 (非住宅),一盛大廈,22.3233488,114.1617244
油尖旺,上海街631-633號 新廣南餐室 (非住宅),新廣南餐室,22.319673,114.167895
油尖旺,中匯街33號中興樓,中興樓,22.3223539,114.1608353
油尖旺,中原樓,中原樓,22.3228702,114.1608884
油尖旺,九龍酒店 (非住宅),九龍酒店,22.2957152,114.1717745
油尖旺,仁安大廈B座,仁安大廈B座,22.3160115,114.1723139
油尖旺,仕德福酒店 (非住宅),仕德福酒店,22.3169907,114.1731435
油尖旺,余仁生中心 (非住宅),Eu Yan Sang 余仁生,22.2969701,114.17512
油尖旺,先施大廈 (非住宅),先施大廈,22.3198502,114.1706419
油尖旺,先施大廈,先施大廈,22.3198502,114.1706419
油尖旺,利發大樓,利發大樓,22.321791,114.168265
油尖旺,利興大廈 (非住宅),利興大樓,22.320228,114.1708071
油尖旺,創德樓,創德樓,22.303226,114.169556
油尖旺,南洋中心 百樂門宴會廳 (非住宅),百樂門宴會廳(尖東店),22.299837,114.178296
油尖旺,友和大樓,友和大樓,22.3209579,114.1709438
油尖旺,君怡酒店,君怡酒店,22.3005805,114.1737669
油尖旺,嘉文花園3座,嘉文花園3座,22.3055508,114.1729874
油尖旺,嘉業大廈 麥當勞 (非住宅),麥當勞香港,22.3221308,114.1684822
油尖旺,國強大厦,國強大廈,22.3149081,114.1683894
油尖旺,國强大廈,國強大廈,22.3149081,114.1683894
油尖旺,國際廣場 (非住宅),國際廣場,22.297025,114.1718959
油尖旺,圓方 (非住宅),圓方,22.3047692,114.1612911
油尖旺,大同新邨大公樓,大同新邨大公樓,22.321692,114.1617244
油尖旺,大同新邨大方樓,大同新邨大方樓,22.3212706,114.1616315
油尖旺,太子道西113號 西記粥店 (非住宅),西記粥店,22.323681,114.167586
油尖旺,奶路臣街1-1E號源發大廈,源發大廈,22.3180225,114.1666346
油尖旺,好安樓,好安樓,22.3035164,114.1728945
油尖旺,好望角大廈 倫敦大酒樓 (非住宅),倫敦大酒樓,22.3171611,114.1699917
油尖旺,威華大廈,威華大廈,22.3002217,114.1755418
油尖旺,安豪樓,安豪樓,22.323314,114.1695505
油尖旺,富多來新邨商場2期 (非住宅),富多來新邨,22.319709,114.163144
油尖旺,富榮花園15座,富榮花園二期15座,22.314245,114.165144
油尖旺,寶來大廈,寶來大廈,22.3047486,114.1724068
油尖旺,尖沙咀消防局職員宿舍,尖沙咀消防局,22.301266,114.16768
油尖旺,帝京酒店,Royal Plaza Hotel 帝京酒店,22.324062,114.173044
油尖旺,帝柏海灣5座,帝柏海灣5座,22.3175226,114.1628503
油尖旺,帝柏海灣第五座,柏景灣帝柏海灣1座,22.3170234,114.1615409
油尖旺,康宏廣場 (非住宅),康宏廣場,22.30161,114.1784641
油尖旺,廣東道565號 (非住宅),油麻地廣東道565號,22.3072775,114.1681953
油尖旺,廣東道847-865號 永發大廈,永發大廈,22.3142236,114.1680291
油尖旺,廣東道959-973號廣興大廈,廣興大廈,22.3164277,114.1675998
油尖旺,廣東道967號廣興大廈,旺角廣東道967號,22.3164991,114.167572
油尖旺,廣東道廣福大廈,廣福大廈,22.3168347,114.1675069
油尖旺,弼街38號利發大樓,利發大樓,22.321791,114.168265
油尖旺,彌敦道240-252號,立信大廈,22.3051706,114.1719424
油尖旺,彌敦道312號美明大廈,美明大廈,22.3060479,114.1718001
油尖旺,彌敦酒店 稻香 (非住宅),稻香 Pier 88,22.307631,114.171695
油尖旺,德利樓,德利樓,22.3062007,114.1702471
油尖旺,德田邨德敬樓 (非住宅),德田邨1座德敬樓,22.3109832,114.238053
油尖旺,恒成大廈 (非住宅),恆成大廈,22.3079267,114.1710062
油尖旺,文利大廈,文利大廈,22.2988518,114.1688711
油尖旺,文耀樓後座,二樓後座 Beyond Band房,22.3248041,114.1704708
油尖旺,文英街26-28號 新發茶餐廳 (非住宅),新發茶餐廳,22.307341,114.166172
油尖旺,新填地街616號,太子新填地街616號,22.323147,114.1669628
油尖旺,新旺樓 (非住宅),新旺樓,22.3213866,114.1709903
油尖旺,旺角政府合署 (非住宅),旺角政府合署,22.321378,114.1725951
油尖旺,旺角綜合大樓 (非住宅),旺角綜合大樓,22.318422,114.168205
油尖旺,旺角道8D號 (非住宅),旺角旺角道8號,22.320954,114.1678785
油尖旺,星光行 (非住宅),星光行,22.2944543,114.1687698
油尖旺,最佳盛品酒店尖沙咀,最佳盛品酒店尖沙咀,22.300236,114.175856
油尖旺,月圓大廈,月圓大廈,22.3201782,114.1667638
油尖旺,柯士甸道37號創德樓,德樓,22.3032318,114.1694993
油尖旺,柯士甸道好兆年行 (非住宅),好兆年行,22.3030887,114.1751935
油尖旺,梳士巴利道香港基督教青年會,香港基督教青年會,22.295347,114.1710035
油尖旺,梳士巴利道香港基督教青年會,香港基督教青年會,22.295347,114.1710035
油尖旺,油麻地救護站,油麻地救護站,22.3129482,114.1714846
油尖旺,海富苑海裕閣,海富苑E座海裕閣,22.3152067,114.164697
油尖旺,海港城港威商場 大家樂 (非住宅),大家樂,22.2993273,114.1675525
油尖旺,海溢閣 (非住宅),海溢閣,22.3128306,114.1677391
油尖旺,海溢閣,海溢閣,22.3128306,114.1677391
油尖旺,港威商場 cookedDeli by city'super (非住宅),cookedDeli by City’super,22.2984894,114.1684126
油尖旺,漢興大廈 (非住宅),漢興大廈,22.2977197,114.1712225
油尖旺,漾日居1座,漾日居1座,22.3045414,114.1626534
油尖旺,百安大廈B座,百安大廈B座,22.3038474,114.1725926
油尖旺,百通大樓,通菜街205號,22.323141,114.169637
油尖旺,立信大廈,立信大廈,22.3051706,114.1719424
油尖旺,美麗都大廈,美麗都大廈,22.2972567,114.1726391
油尖旺,花園街110號,旺角花園街110號,22.3201048,114.1711444
油尖旺,荔塘大廈B座,荔塘大廈B座,22.3239546,114.1656259
油尖旺,荔枝角道15-21號,荔枝角道15-21號,22.3222473,114.1682965
油尖旺,裕耀工廠大廈,裕耀工廠大廈,22.3207585,114.1660553
油尖旺,西貢街19號,油麻地西貢街19號,22.3069278,114.1722299
油尖旺,通菜街17號,通菜街17-35號,22.3172922,114.1708277
油尖旺,遠東大廈 (非住宅),RedMr紅人派對 - 旺角,22.318643,114.168958
油尖旺,金勳大廈,金勳大廈,22.308267,114.1711064
油尖旺,金巴利大廈,金巴利大廈,22.3021364,114.1753369
油尖旺,金巴利道53-54號 (非住宅),尖沙咀金巴利道53號,22.3009487,114.1744368
油尖旺,金馬倫道29A號 (非住宅),尖沙咀金馬倫道29a號,22.2994017,114.1746594
油尖旺,鑽石樓,鑽石樓,22.3243879,114.1678552
油尖旺,長榮大廈 元朗冰室 (非住宅),元朗冰室,22.3237393,114.167931
油尖旺,雅蘭中心 稻香 (非住宅),稻香,22.3177989,114.1695014
油尖旺,雅蘭中心一期 (非住宅),黃舜雯醫生 - 雅蘭中心,22.317912,114.169191
油尖旺,雲峰樓,雲峰樓,22.3233087,114.165642
油尖旺,餘慶大廈,餘慶大廈,22.3050598,114.1702936
油尖旺,香港喜來登酒店,香港喜來登酒店,22.2952629,114.1726015
油尖旺,香港朗廷酒店 (非住宅),The Langham, Hong Kong,22.2963977,114.1697461
油尖旺,香港海景絲麗酒店,香港海景絲麗酒店,22.3102695,114.1700399
油尖旺,香港瑰麗酒店,香港瑰麗酒店,22.2949764,114.1758105
油尖旺,香港童軍總會 富臨皇宮 (非住宅),富臨皇宮,22.3029119,114.1692044
油尖旺,龍堡國際,龍堡國際,22.3025414,114.1693385
深水埗,丰匯1座,豐滙1座,22.328953,114.159651
深水埗,偉業樓,偉業樓,22.329123,114.164734
深水埗,元安大廈,元安大廈,22.3344973,114.1607026
深水埗,元州街174-188號鴻裕大廈,鴻裕大廈B座,22.335342,114.160243
深水埗,元州街鴻裕大廈,鴻裕大廈,22.3351446,114.1601917
深水埗,北河街34號,深水埗北河街34號,22.3277938,114.1604391
深水埗,南昌街199號 鑽石樓,鑽石樓第11期（南昌街）,22.331294,114.164898
深水埗,南昌街199號,元洲南昌街199號,22.33134,114.164842
深水埗,南昌邨昌謙樓,南昌邨3座昌謙樓,22.3267581,114.1576604
深水埗,南邦大廈 (非住宅),南邦大廈,22.3291781,114.1636055
深水埗,南邦樓,南邦樓,22.328975,114.160754
深水埗,又一居29座,又一居26座,22.333616,114.172782
深水埗,喜漾2座,喜漾,22.3389004,114.154518
深水埗,喜雅1座,喜雅,22.3369975,114.1603311
深水埗,喜雅一座,喜雅,22.3369975,114.1603311
深水埗,嘉利閣,嘉利閣,22.3298654,114.1600756
深水埗,基隆街254號,深水埗基隆街254號,22.329344,114.161542
深水埗,大南街190號,塘尾大南街190號,22.327186,114.163532
深水埗,大南街345號 (非住宅),深水埗大南街345號,22.329561,114.159969
深水埗,大埔道43號,塘尾大埔道43號,22.3301954,114.1659644
深水埗,大埔道77號,大埔道77號,22.3322203,114.1641512
深水埗,富昌商場 麥當勞 (非住宅),麥當勞,22.3271194,114.1551469
深水埗,富昌邨富旺樓,富昌邨富旺樓,22.3289815,114.1547575
深水埗,寶熙苑富熙閣,寶熙苑商場,22.3372222,114.1594444
深水埗,寶麗苑寶康閣,林錦華註冊中醫,22.33813,114.158153
深水埗,巴域居,巴域居,22.332338,114.164892
深水埗,德富大廈,德富大廈,22.328787,114.159022
深水埗,怡閣苑怡康閣,怡閣苑怡康閣,22.3326502,114.1587287
深水埗,恒寧閣 (非住宅),恆寧閣,22.337083,114.158855
深水埗,時尚華庭 (非住宅),時尚華庭,22.3292551,114.1568941
深水埗,東廬大樓,東廬大樓B座,22.330639,114.1661758
深水埗,東廬大樓A座,東廬大樓B座,22.330639,114.1661758
深水埗,榮昌邨榮俊樓,榮昌邨榮俊樓,22.3290203,114.1557561
深水埗,汝洲街276號 肥仔記 (非住宅),肥仔記點心,22.330635,114.160833
深水埗,海麗邨海慧樓,海麗邨,22.3323083,114.146444
深水埗,海麗邨海智樓,海麗邨,22.3323083,114.146444
深水埗,澤安邨榮澤樓,可澤耆英鄰舍中心,22.340551,114.163792
深水埗,營盤街128號元安大廈,元安大廈,22.3344973,114.1607026
深水埗,營盤街130號 元安大廈,元安大廈,22.334665,114.1606242
深水埗,白田邨13座,白田邨,22.3351567,114.1673695
深水埗,石硤尾邨24座,石硤尾邨24座,22.333149,114.1653336
深水埗,石硤尾邨美亮樓,石硤尾邨美亮樓,22.33244,114.16768
深水埗,石硤尾邨美映樓,美映樓,22.334109,114.1680943
深水埗,石硤尾邨美笙樓,石硤尾邨美笙樓,22.3336487,114.1661008
深水埗,福僑大樓 (非住宅),富昌邨,22.3285042,114.1546509
深水埗,美孚新邨1期23座,美孚新邨六期,22.339346,114.140029
深水埗,美孚新邨5期,美孚新邨,22.3358773,114.1411797
深水埗,美孚新邨6期,美孚新邨六期,22.339346,114.140029
深水埗,美孚新邨第6期,美孚新邨六期,22.339346,114.140029
深水埗,美葵樓 百份百餐廳 (非住宅),百份百餐廳,22.3205167,114.1632339
深水埗,興隆大廈,興隆大廈,22.3302818,114.1598811
深水埗,荔枝角道338號,荔枝閣,22.3288839,114.1604936
深水埗,荔枝閣,荔枝閣,22.3288839,114.1604936
深水埗,華興大廈,華興大樓,22.3287844,114.1586358
深水埗,蘇屋商場 (非住宅),蘇屋,22.3410352,114.1565689
深水埗,蘇屋邨百合樓,蘇屋邨茶花樓,22.341106,114.158186
深水埗,蘇屋邨荷花樓,蘇屋邨茶花樓,22.341106,114.158186
深水埗,西九龍中心 美心西餅 (非住宅),美心西餅,22.3309783,114.1600762
深水埗,西九龍法院大樓B座 (非住宅),西九龍法院大樓,22.3312583,114.1530395
深水埗,長沙灣天主教英文中學 (非住宅),長沙灣天主教英文中學,22.3387341,114.1536456
深水埗,青山道141號,青山道141號,22.3346096,114.1609581
深水埗,順景閣,順景閣,22.334948,114.1616
深水埗,香港紗廠工業大廈1及2期 將軍堡 (非住宅),將軍堡,22.3377241,114.1486103
深水埗,麗安邨麗正樓,麗安邨4座麗正樓,22.331466,114.159095
深水埗,麗翠苑麗柏閣,麗翠苑 Lai Tsui Court,22.3335277,114.1547903
深水埗,麗翠苑麗森閣,麗翠苑 Lai Tsui Court,22.3335277,114.1547903
深水埗,麗翠苑麗榕閣,麗翠苑 Lai Tsui Court,22.3335277,114.1547903
深水埗,麗閣邨麗芙樓,麗閣邨麗芙樓,22.3322473,114.1583803
深水埗,麗閣邨麗菊樓,麗閣邨麗菊樓,22.3314632,114.157823
深水埗,黃金商場 潮福蒸氣火鍋 (非住宅),潮福蒸氣火鍋,22.3323896,114.1618615
灣仔,中國海外大廈 (非住宅),灣仔中國海外大廈,22.2778337,114.1727784
灣仔,保良局金銀業貿易場張凝文學校 (非住宅),保良局金銀業貿易場張凝文學校,22.2752595,114.1851092
灣仔,光明臺1座,光明臺1座,22.2775651,114.1927491
灣仔,冠景樓,冠景樓,22.2787262,114.1809526
灣仔,嘉景臺,嘉景台,22.2747331,114.1945371
灣仔,堅尼地道88號A座,A座,22.2725414,114.1728521
灣仔,寶明大廈,寶明大廈,22.2784909,114.1835534
灣仔,崇光(香港崇光百貨) (非住宅),崇光百貨銅鑼灣店,22.2804272,114.1843032
灣仔,康樂商業大廈 (非住宅),康樂商業大廈,22.277359,114.1779981
灣仔,德華大廈,德華大廈,22.2778546,114.1772138
灣仔,成功樓 滾得棧 (非住宅),滾得棧（天后店）,22.284445,114.191765
灣仔,新鴻基中心 (非住宅),新鴻基中心,22.2803654,114.1769119
灣仔,明豐大廈 大快活 (非住宅),大快活,22.2769765,114.1761456
灣仔,東角中心 (非住宅),東角中心,22.2802873,114.1841238
灣仔,樂滿大廈,樂滿大廈,22.2768205,114.1686912
灣仔,波斯富大廈,波斯富大廈,22.2787498,114.1830324
灣仔,灣仔帝盛酒店,香港灣仔帝盛酒店,22.274559,114.178936
灣仔,灣仔政府大樓 (非住宅),灣仔政府大樓,22.280301,114.172517
灣仔,玉滿樓 (非住宅),玉滿樓,22.2775699,114.1750077
灣仔,百旺都中心,百旺都中心,22.2755622,114.1717682
灣仔,皇悅酒店,港島皇悅酒店,22.2778068,114.1701009
灣仔,禮加大樓,禮加大樓,22.2773865,114.1868276
灣仔,箕璉坊 32 號,Green Lane Hall - Quarters,22.2633737,114.1876404
灣仔,箕璉坊32號,Green Lane Hall - Quarters,22.2633737,114.1876404
灣仔,維寶商業大廈 (非住宅),維寶商業大廈,22.2803268,114.1834167
灣仔,縉景台 (非住宅),縉景台,22.2865203,114.19221
灣仔,聯利大廈,聯利大廈,22.2761846,114.1705839
灣仔,萬麗海景酒店,香港萬麗海景酒店,22.281513,114.173782
灣仔,譚臣道112號勝意大廈,約瑟校服・制服 - 灣仔,22.2771944,114.1751602
灣仔,軒尼詩大廈,軒尼詩大廈,22.2798467,114.1830819
灣仔,軒尼詩道軒尼詩大廈,軒尼詩大廈,22.2798467,114.1830819
灣仔,金都洋樓,金都洋樓停車場,22.2864914,114.1907012
灣仔,銅鑼灣街市 (非住宅),銅鑼灣,22.2859787,114.1914919
灣仔,香港銅鑼灣皇冠假日酒店,Crowne Plaza Hong Kong Causeway Bay,22.2769914,114.1826942
荃灣,安富大廈,安富大廈,22.3727375,114.1154853
荃灣,富榮大廈 (非住宅),富榮大廈,22.3725446,114.1157408
荃灣,悅來酒店,悅來酒店,22.368988,114.120796
荃灣,愉景新城8座,愉景新城8座,22.3764007,114.1123035
荃灣,楊屋道市政大廈 (非住宅),楊屋道市政大廈,22.36906,114.114597
荃灣,樂悠居,樂悠居,22.366371,114.1181331
荃灣,海濱花園海明閣,海濱花園11座海明閣,22.361345,114.112984
荃灣,海濱花園海豐閣,海濱花園海豐閣,22.361249,114.113615
荃灣,海濱花園海霞閣,海濱花園海霞閣,22.361763,114.112789
荃灣,海韻花園,海韻花園,22.368432,114.061637
荃灣,海韻花園3座,海韻花園3座,22.3684727,114.061646
荃灣,爵悅庭,爵悅庭,22.3667885,114.1164626
荃灣,石圍角邨石蓮樓,石圍角邨石蓮樓,22.3752442,114.1228244
荃灣,祈德尊新邨A座,祈德尊新邨,22.3703158,114.1102987
荃灣,荃威花園E座,荃威花園E座,22.3787494,114.1045925
荃灣,荃景圍胡忠游泳池 (非住宅),荃景圍胡忠游泳池,22.377972,114.1042674
荃灣,荃灣千色匯 稻香．茶居 (非住宅),荃灣千色匯,22.3706219,114.1177482
荃灣,荃灣帝盛酒店,帝盛酒店,22.3706522,114.1294527
荃灣,萬景峯1座 (非住宅),萬景峯,22.3706748,114.1141282
荃灣,象山邨秀山樓,象山邨秀山樓,22.378753,114.13157
荃灣,香港港安醫院 (非住宅),荃灣港安醫院,22.3764929,114.1041048
荃灣,香港港安醫院 - 荃灣 (非住宅),荃灣港安醫院,22.3764929,114.1041048
荃灣,香車街街市 (非住宅),香車街街市及熟食中心,22.3732905,114.1115602
荃灣,鹹田村43號,河背村43號,22.371549,114.127408
荃灣,鹹田街43號,荃灣鹹田街43號,22.36912,114.117615
荃灣,麗城花園2期1座,致誠室內設計,22.371662,114.101492
葵青,IPLACE,iPlace,22.3601536,114.1349241
葵青,中國招商局物流中心 (非住宅),中國招商局物流中心China merchants logistics centre,22.3338247,114.1112788
葵青,新都會廣場 潮庭 (非住宅),潮庭,22.3576545,114.126624
葵青,梨木道葵寶大廈,葵寶大廈,22.3707482,114.1380778
葵青,盈翠半島12座,盈翠半島,22.3586612,114.107512
葵青,盈翠半島1期3A座,盈翠半島,22.3586612,114.107512
葵青,石籬一邨石俊樓高座,香港遊樂場協會賽馬會上葵涌青少年綜合服務中心,22.3630375,114.1378083
葵青,石籬二邨石富樓,石籬(二)邨石富樓,22.3674574,114.140266
葵青,石籬二邨石欣樓,石籬(二)邨石欣樓,22.3675,114.1411021
葵青,石籬二邨石祥樓,石籬(二)邨石祥樓,22.3679221,114.1406376
葵青,石籬商場(第2期) (非住宅),石籬(二)邨商場,22.3655683,114.1389353
葵青,石蔭東邨蔭裕樓,石蔭東邨1座蔭裕樓,22.373302,114.1391512
葵青,綠悠雅苑第2座,綠悠雅苑第2座,22.3528756,114.1042442
葵青,美景花園10座,美景花園10座,22.3439617,114.1065667
葵青,荃灣帝盛酒店,帝盛酒店,22.3706522,114.1294527
葵青,荔景紀律部隊宿舍 (非住宅),荔景紀律部隊宿舍,22.3482156,114.1315599
葵青,荔景紀律部隊宿舍三座,荔景紀律部隊宿舍3座,22.3487023,114.1314408
葵青,荔景邨樂景樓,荔景邨樂景樓,22.3461929,114.1263314
葵青,葵寶大廈,葵寶大廈,22.3707482,114.1380778
葵青,葵昌路18-24號 (非住宅),美順工業大廈,22.3652057,114.1332523
葵青,葵涌大廈A座,金龍工業中心第三座,22.357983,114.130888
葵青,葵涌邨合葵樓,葵涌邨合葵樓,22.3681764,114.1312849
葵青,葵盛東邨盛逸樓,葵盛東邨盛逸樓,22.3649148,114.1270746
葵青,葵盛西邨10座,葵盛西邨10座,22.3600062,114.1228012
葵青,葵聯邨聯逸樓,葵聯邨聯逸樓,22.3617654,114.1258901
葵青,葵芳邨葵仁樓,葵芳邨5座葵仁樓,22.3586339,114.1281894
葵青,葵芳邨葵喜樓,葵芳邨葵喜樓,22.3593896,114.1283752
葵青,葵芳閣2座,葵芳閣2座,22.3553812,114.1284913
葵青,葵馥苑安葵閣,葵馥苑安葵閣,22.3677503,114.1294203
葵青,葵馥苑樂葵樓,葵馥苑樂葵閣,22.3672706,114.1294203
葵青,葵馥苑樂葵閣,葵馥苑樂葵閣,22.3672706,114.1294203
葵青,象山邨秀山樓,象山邨秀山樓,22.378753,114.13157
葵青,長亨邨亨俊樓,長亨邨6座亨俊樓,22.3576894,114.0981822
葵青,長亨邨亨緻樓,長亨邨4座亨緻樓,22.3566275,114.0988325
葵青,長亨邨亨翠樓,長亨邨1座亨翠樓,22.3533132,114.0982751
葵青,長亨邨亨麗樓,長亨邨2座亨麗樓,22.3541417,114.0985538
葵青,長亨邨商場 (非住宅),長亨商場,22.354612,114.097692
葵青,長安邨安江樓,長安邨3座安江樓,22.3609433,114.1013409
葵青,長安邨安海樓,長安邨1座安海樓,22.361683,114.100401
葵青,長安邨安濤樓 (非住宅),長安邨安濤樓互助委員會,22.361354,114.102226
葵青,長宏邨宏善樓,長宏邨宏善樓,22.3563253,114.0952092
葵青,長康邨康和樓 (非住宅),長康邨,22.350027,114.105611
葵青,長發廣場 (非住宅),優品360,22.362497,114.1028364
葵青,長發邨亮發樓,長發邨3座亮發樓,22.3631073,114.1036635
葵青,長發邨敬發樓,長發邨1座敬發樓,22.3619274,114.1040482
葵青,長青邨青松樓,青松樓,22.3478214,114.1083882
葵青,長青邨青柏樓,長青邨青柏樓,22.3484152,114.1093074
葵青,青宏苑宏裕閣,青宏苑宏裕閣,22.3621069,114.1046158
葵青,青怡薈 (非住宅),青怡廣場,22.353687,114.105033
葵青,青泰苑通泰閣,青泰苑通泰閣,22.3633302,114.1005034
葵青,青衣城 丼丼屋 (非住宅),丼丼屋,22.3582411,114.1071474
葵青,青衣城1期 (非住宅),青衣城1期,22.3584265,114.1081419
葵青,麗瑤邨富瑤樓,麗瑤邨富瑤樓,22.3542309,114.1302563
西貢,上洋,上洋村,22.3096256,114.2852884
西貢,健明邨明日樓,健明邨明日樓,22.3076559,114.2506126
西貢,北港村,北港,22.379476,114.258182
西貢,南豐廣場1座,南豐廣場1座,22.314343,114.2634288
西貢,厚德邨德志樓,厚德邨德志樓,22.3180295,114.2649147
西貢,善明邨善智樓,善明邨善智樓,22.3037201,114.2501482
西貢,天晉2期2B座,天晉2期,22.3062586,114.2609203
西貢,天晉匯 東南加 (非住宅),天晉3A期,22.3055989,114.2594818
西貢,富寧花園 6 座,富寧花園6座,22.3193901,114.2673293
西貢,富寧花園4座,富寧花園4座,22.3189013,114.2684901
西貢,富寧花園6座,富寧花園6座,22.3193901,114.2673293
西貢,寶明苑寶柏閣,寶明苑寶柏閣,22.3118409,114.2577637
西貢,寶林商場 (非住宅),寶林商場,22.3250831,114.2561675
西貢,寶林邨寶德樓,寶德樓,22.3265154,114.2554599
西貢,寶琳邨寶寧樓 (非住宅),基督教懷智服務處寶林中心及宿舍,22.3257928,114.2547429
西貢,將軍澳中心5座,將軍澳中心5座,22.3079912,114.2558893
西貢,將軍澳廣場2座,將軍澳廣場2座,22.3094024,114.2625697
西貢,將軍澳村,將軍澳村,22.3270387,114.249999
西貢,對面海村,對面海邨,22.3784517,114.2688122
西貢,對面海邨海寧樓,對面海邨海寧樓,22.3749877,114.27051
西貢,尚德邨尚義樓,尚德邨尚義樓,22.3112024,114.2573922
西貢,峻瀅一期3座,The Beaumount 峻瀅,22.2978681,114.2750363
西貢,康城站 (非住宅),康城站,22.2963175,114.2696132
西貢,廣明苑廣昌閣,廣明苑廣昌閣,22.3119679,114.259714
西貢,廣明苑廣賢閣,廣明苑廣賢閣,22.3126095,114.2584138
西貢,彩明苑彩富閣,彩明苑彩富閣,22.307891,114.252748
西貢,彩明苑彩柳閣,彩明苑彩柳閣,22.3084729,114.2546757
西貢,彩明苑彩榮閣,彩明苑彩榮閣,22.3069683,114.2533058
西貢,怡心園1座,怡心園1座,22.3224244,114.2531201
西貢,日出康城2B期領峯6座,日出康城,22.2948541,114.2729928
西貢,日出康城3期緻藍天5座,日出康城三期緻藍天五座晶巒,22.2972911,114.2704551
西貢,日出康城第2A期5座,日出康城一期首都6座右翼威士拿,22.2972619,114.2713711
西貢,日出康城第8期 (非住宅),日出康城,22.2948541,114.2729928
西貢,日出康城緻藍天1座,緻藍天1座,22.2966399,114.2695581
西貢,日出康城領都6座,日出康城一期首都6座右翼威士拿,22.2972619,114.2713711
西貢,日出康城首都1期5座,日出康城一期首都6座右翼威士拿,22.2972619,114.2713711
西貢,旭輝臺2座,旭輝臺2座,22.3234671,114.2547918
西貢,明德邨明覺樓,明覺樓,22.316074,114.26893
西貢,明德邨明道樓,明道樓 (1 座),22.3164521,114.2693724
西貢,景林邨景桃樓,景林邨6座景桃樓,22.3209731,114.2600854
西貢,曉嵐閣6座,曉嵐閣6座,22.3366384,114.2397231
西貢,李達三葉耀珍伉儷李本俊會議大樓 (非住宅),李達三葉耀珍伉儷李本俊會議大樓,22.3321772,114.2664603
西貢,東港城 壹匯中菜廳 (非住宅),壹匯中菜廳,22.3160291,114.2659952
西貢,海傍街27號 富雅海鮮酒家 (非住宅),富雅海鮮,22.3793303,114.271879
西貢,清水灣半島8座,清水灣半島二期8座,22.3063335,114.2666792
西貢,璟瓏軒,璟瓏軒,22.392377,114.272859
西貢,相思灣53號,清水灣相思灣路,22.3026544,114.2905856
西貢,相思灣村53號,清水灣相思灣路,22.3026544,114.2905856
西貢,翠林新城 喜悅皇宮 (非住宅),喜悅皇宮,22.3226894,114.248982
西貢,翠林邨彩林樓,翠林邨彩林樓,22.323989,114.2476406
西貢,翠林邨欣林樓,翠林邨欣林樓,22.3233631,114.2482907
西貢,茵怡花園4座,茵怡花園4座,22.3228262,114.2555376
西貢,裕明苑裕昌閣,裕明苑B座裕昌閣,22.3184179,114.2668649
西貢,西貢動物醫院 (非住宅),西貢動物醫院,22.3816024,114.2718425
西貢,西貢鄧肇堅運動場 (非住宅),西貢鄧肇堅運動場,22.3832589,114.2729737
西貢,都會駅5座,都會駅5座,22.3039933,114.251727
西貢,頌明苑冠明閣,頌明苑E座冠明閣,22.317222,114.263755
西貢,頌明苑嘉明閣,頌明苑A座嘉明閣,22.3186615,114.2629876
西貢,頌明苑賢明閣,頌明苑C座賢明閣,22.3177974,114.2629412
西貢,香港九龍東智選假日酒店,香港九龍東智選假日酒店,22.308125,114.2596038
西貢,馬游塘,馬游塘,22.321765,114.244353
西貢,馬游塘村,馬游塘,22.321765,114.244353
觀塘,Gravity (非住宅),Gravity 萬有引力,22.3088208,114.2259519
觀塘,Megabox Ruby Tuesday (非住宅),Ruby Tuesday,22.3196279,114.2084863
觀塘,創紀之城一期渣打中心 (非住宅),渣打中心,22.313542,114.221563
觀塘,匯景廣場 (非住宅),滙景廣場,22.3070624,114.2336121
觀塘,匯景花園2座,匯景花園2座,22.3080523,114.2333611
觀塘,協和大廈 (非住宅),協和大廈,22.3165064,114.2262045
觀塘,啓業邨啓盛樓,啟盛樓,22.3296547,114.2089233
觀塘,啟業邨啟樂樓,啟業邨啟樂樓,22.3284564,114.2094681
觀塘,啟業邨啟盛樓,啟盛樓,22.3296547,114.2089233
觀塘,啟業邨啟祥樓,啟祥樓,22.330015,114.209371
觀塘,啟業邨啟裕樓,啟業邨啟裕樓,22.3290116,114.2102203
觀塘,啟業邨啟賢樓 (非住宅),啟業邨啟賢樓,22.3290676,114.2089108
觀塘,坪石邨 麥當勞 (非住宅),麥當勞香港,22.31902,114.2319671
觀塘,坪石邨商場 富港酒家 (非住宅),富港酒家,22.291811,114.206049
觀塘,坪石邨玉石樓 彬記粥麵美食 (非住宅),坪石邨,22.3333511,114.2090864
觀塘,坪石邨翠石樓,坪石邨,22.3333511,114.2090864
觀塘,坪石邨藍石樓,坪石邨藍石樓,22.3329283,114.2097714
觀塘,坪石邨街市 (非住宅),坪石邨,22.3333511,114.2090864
觀塘,坪石邨金石樓,坪石邨金石樓,22.3333338,114.2101965
觀塘,坪石邨黃石樓,坪石邨黃石樓,22.3323889,114.2090843
觀塘,大本營 薩莉亞餐廳 (非住宅),薩莉亞,22.3060743,114.237135
觀塘,安泰大樓,安泰大樓,22.3168692,114.2164573
觀塘,安泰邨和泰樓,和泰樓,22.3281394,114.228184
觀塘,安泰邨智泰樓,智泰樓,22.3287546,114.2291481
觀塘,安達邨善達樓,安達邨善達樓,22.3199143,114.2353812
觀塘,安達邨愛達樓,安達邨愛達樓,22.3219083,114.233245
觀塘,安達邨謙達樓,安達邨謙達樓,22.3203766,114.2368672
觀塘,寶珮苑寶瑤閣,寶珮苑E座寶瑤閣,22.3174766,114.2272313
觀塘,寶珮苑寶瑤閤,寶珮苑E座寶瑤閣,22.3174766,114.2272313
觀塘,寶珮苑寶翠閣,寶珮苑,22.3173644,114.2287189
觀塘,寶達商埸 (非住宅),寶達商場,22.3176434,114.2363253
觀塘,寶達邨達佳樓,寶達邨C座達佳樓,22.3166266,114.2379817
觀塘,寶達邨達怡樓,寶達邨達怡樓,22.3177093,114.239816
觀塘,展華樓 (非住宅),展華長者日間護理中心,22.321068,114.21876
觀塘,平田邨平真樓,平田邨平真樓,22.3080277,114.2372387
觀塘,康柏苑龍柏閣,康栢苑B座龍栢閣,22.3032465,114.2382603
觀塘,康盈苑,康盈苑,22.3081277,114.2382603
觀塘,彩德邨彩亮樓,彩德邨彩亮樓,22.330142,114.214879
觀塘,彩德邨彩仁樓,彩德邨彩仁樓,22.3303846,114.2121616
觀塘,彩德邨彩敬樓,彩德邨彩敬樓,22.3302213,114.2142979
觀塘,彩德邨彩誠樓,彩德邨彩誠樓,22.330027,114.21314
觀塘,彩盈邨盈樂樓,彩盈邨盈樂樓,22.3275171,114.2154124
觀塘,彩盈邨盈順樓,彩盈邨盈順樓,22.3268775,114.2155982
觀塘,彩福邨彩善樓,彩福邨彩善樓,22.3281971,114.2171771
觀塘,彩福邨彩歡樓,彩福邨彩歡樓,22.3271501,114.2177344
觀塘,德田邨德盛樓,德田邨7座德盛樓,22.3074368,114.2388027
觀塘,德田邨德禮樓,德田邨2座德禮樓,22.3102921,114.2383532
觀塘,德田邨德義樓,德田邨3座德義樓,22.3096507,114.2396535
觀塘,德福花園D座,德福花園,22.3243965,114.2125663
觀塘,悦品海景酒店,悦品海景酒店 ‧ 觀塘,22.312137,114.2195804
觀塘,晨光大廈,晨光大廈,22.3139672,114.2232375
觀塘,曉光閣,曉光閣,22.3178346,114.2308414
觀塘,業運工業大廈,業運工業大廈,22.312698,114.2242359
觀塘,樂華北邨立華樓,樂華北邨立華樓,22.3225008,114.2199867
觀塘,樂華南邨安華樓,樂華南邨安華樓,22.320693,114.2216454
觀塘,樂雅苑雅意閣,樂雅苑D座雅意閣,22.323388,114.220226
觀塘,油塘中心2座,油塘中心2座,22.2951609,114.2389569
觀塘,油塘邨榮塘樓,油塘邨榮塘樓,22.2988889,114.2380556
觀塘,油塘邨美塘樓,油塘邨美塘樓,22.3007896,114.2371226
觀塘,油塘邨華塘樓,油塘邨華塘樓,22.2995719,114.237796
觀塘,油塘邨貴塘樓,油塘邨貴塘樓,22.2980792,114.2384343
觀塘,油美苑濤美閣,油美苑濤美閣,22.2958064,114.2395606
觀塘,油美苑灝美閣,油美苑灝美閣,22.297377,114.23932
觀塘,油翠苑溢美閣,油翠苑D座溢美閣,22.3001488,114.2381442
觀塘,油麗邨康麗樓,油麗邨,22.299182,114.236622
觀塘,油麗邨秀麗樓,油麗邨D座秀麗樓,22.301579,114.235867
觀塘,油麗邨雍麗樓,油麗邨雍麗樓,22.3006067,114.2347327
觀塘,清水灣道8號 匯八坊 (非住宅),清水灣道8號,22.3339771,114.2098396
觀塘,清水灣道8號匯八坊 大家樂 (非住宅),大家樂,22.3339771,114.2098396
觀塘,溢財中心 (非住宅),溢財中心,22.3116218,114.2265458
觀塘,牛頭角上邨常滿樓,牛頭角上邨1座常滿樓,22.3189704,114.2176415
觀塘,牛頭角下邨貴新樓,牛頭角下邨貴新樓,22.3212405,114.2154124
觀塘,牛頭角樂華(南)邨敏華樓,樂華南邨敏華樓,22.3196755,114.2216835
觀塘,玉蓮臺2座,玉蓮臺2座,22.3156866,114.2200796
觀塘,琼林大廈,琼林大廈,22.3149965,114.2223784
觀塘,祥和苑和健閣,祥和苑和健閣,22.3191117,114.2268133
觀塘,秀茂坪邨秀慧樓,秀茂坪邨秀慧樓,22.3188281,114.2334308
觀塘,秀茂坪邨秀景樓,秀茂坪邨秀景樓,22.3177087,114.2338952
觀塘,秀茂坪邨秀程樓,秀茂坪邨秀程樓,22.319118,114.2338023
觀塘,秀茂坪邨秀裕樓,秀茂坪邨秀裕樓,22.3181161,114.2335237
觀塘,翠屏(北)邨翠楣樓,翠屏北邨,22.3165412,114.2296358
觀塘,翠屏(南)邨翠松樓,翠松樓,22.312921,114.234295
觀塘,翠屏(南)邨翠樂樓,翠屏南邨翠樂樓,22.3122513,114.2309231
觀塘,翠屏北邨翠楣樓,翠屏北邨,22.3165412,114.2296358
觀塘,翠屏南邨翠松樓,翠松樓,22.312921,114.234295
觀塘,興達大廈,興達大廈,22.3148544,114.2227686
觀塘,花園大廈畫眉樓,花園大廈畫眉樓,22.317022,114.219361
觀塘,萬和花園大廈,萬和花園大廈,22.3128945,114.2285083
觀塘,藍田邨藍暉樓,藍田邨藍暉樓,22.311762,114.2367743
觀塘,藍田邨藍蔚樓,藍田邨藍蔚樓,22.3102518,114.2364028
觀塘,裕民中心3座,裕民中心3座,22.3142835,114.2230285
觀塘,觀塘帝盛酒店,香港觀塘帝盛酒店,22.3080189,114.2242966
觀塘,觀塘晨星樓,晨星樓,22.3169097,114.2251647
觀塘,觀塘游泳池 (非住宅),觀塘游泳池,22.3110896,114.2297388
觀塘,觀塘花園大廈喜鵲樓,觀塘花園大廈,22.3171472,114.2176748
觀塘,觀塘花園大廈燕子樓,花園大廈燕子樓,22.317926,114.217915
觀塘,觀塘道382號 (非住宅),觀塘觀塘道382號,22.3143312,114.2203286
觀塘,觀點中心 (非住宅),觀點中心 KWUN TONG VIEW,22.3129083,114.224208
觀塘,金龍園,金龍園,22.3192474,114.2212192
觀塘,順利紀律部隊宿舍5座,順利紀律部隊宿舍,22.3319377,114.2214252
觀塘,順利邨利恆樓,順利邨利恒樓,22.3327511,114.2240734
觀塘,順天邨天柱樓,順天邨天柱樓,22.3250887,114.2276028
觀塘,順天邨天榮樓,順天邨天榮樓,22.3261807,114.2262096
觀塘,高俊苑俊茂閣,高俊苑俊茂閣,22.2977332,114.2428112
觀塘,高翔苑高康閣,高翔苑高康閣,22.2975185,114.2408608
觀塘,鯉魚門廣場 (非住宅),鯉魚門廣場,22.2964001,114.2394189
觀塘,麗晶花園1座,麗晶花園1座,22.3294483,114.2070531
離島,富東邨東馬樓,富東邨東馬樓,22.287809,113.9419833
離島,富豪機場酒店,富豪機場酒店,22.318835,113.934283
離島,海堤灣畔1座,海堤灣畔1座,22.292596,113.9415186
離島,滿東邨滿和樓,滿東邨滿和樓,22.278597,113.933184
離島,索罟灣第一街27A號,索罟灣第一街,22.2050191,114.1311601
離島,諾富特東薈城酒店,諾富特東薈城酒店,22.288126,113.94723
離島,香港國際機場一號客運大樓 (非住宅),香港國際機場,22.308047,113.9184808
離島,香港天際萬豪酒店 (非住宅),香港天際萬豪酒店,22.319077,113.9437259
離島,香港天際萬豪酒店,香港天際萬豪酒店,22.319077,113.9437259
黃大仙,仁愛大廈,仁愛大樓,22.3349703,114.1948622
黃大仙,佛教孔先洲紀念中學 (非住宅),佛教孔仙洲紀念中學,22.3384259,114.2081677
黃大仙,啟德花園1座,啟德花園1座,22.3377887,114.1952338
黃大仙,嗇色園社會服務大樓 (非住宅),嗇色園社會服務大樓,22.3430587,114.1973498
黃大仙,嘉華大廈,嘉華大廈,22.3470545,114.2028038
黃大仙,嘉諾撒小學(新蒲崗) (非住宅),嘉諾撒小學（新蒲崗）,22.3370771,114.2015969
黃大仙,坪石邨翠石樓,坪石邨,22.3333511,114.2090864
黃大仙,坪石邨金石樓,Ping Shek Estate Car Park,22.3329963,114.2101922
黃大仙,如意樓 (非住宅),黄大仙下邨二區龍樂樓,22.3411642,114.1925684
黃大仙,威豪花園2座,威豪花園2座,22.3367979,114.2085392
黃大仙,宏景花園3座,宏景花園3座,22.3412777,114.2079123
黃大仙,富山邨富信樓,富山邨富信樓,22.3427251,114.2090965
黃大仙,峻弦1座,峻弦1座,22.3396959,114.2133691
黃大仙,峻弦3座,峻弦3座,22.3393139,114.2137174
黃大仙,彩虹道街市熟食中心 (非住宅),彩虹道街市及熟食中心,22.3370401,114.1966077
黃大仙,彩虹邨 愛群快餐店 (非住宅),愛群快餐店,22.3351213,114.2054853
黃大仙,彩虹邨丹鳳樓,彩虹邨丹鳳樓,22.334968,114.207552
黃大仙,彩虹邨白雪樓,彩虹邨白雪樓,22.335682,114.206912
黃大仙,彩虹邨碧海樓,彩虹邨碧海樓,22.336071,114.204825
黃大仙,彩虹邨翠瓊樓,彩虹邨翠瓊樓,22.335691,114.20597
黃大仙,彩虹邨金碧樓,彩虹邨金碧樓,22.3353066,114.2052884
黃大仙,彩虹邨錦雲樓,彩虹邨錦雲樓,22.337091,114.20501
黃大仙,彩輝邨彩華樓,彩輝邨1座彩華樓,22.3357092,114.218095
黃大仙,彩輝邨彩葉樓,彩輝邨2座彩葉樓,22.3352563,114.2182917
黃大仙,彩雲(一)邨星辰樓,彩雲(一)邨星辰樓,22.3346491,114.2142746
黃大仙,彩雲(二)邨豐澤樓,彩雲(二)邨豐澤樓,22.334549,114.2176648
黃大仙,彩雲商場 彩雲街市 (非住宅),彩雲商場,22.3337874,114.2147761
黃大仙,彩雲商場 彩龍皇宮大酒樓 (非住宅),彩龍皇宮大酒樓,22.3339753,114.2144036
黃大仙,彩雲邨星辰樓,彩雲(一)邨星辰樓,22.334669,114.21427
黃大仙,彩雲邨白鳳樓,香港心理衞生會彩雲宿舍,22.3350176,114.2119606
黃大仙,彩雲邨長波樓,彩雲(一)邨長波樓,22.33317,114.214328
黃大仙,德強苑德賢閣,德強苑A座德賢閣,22.3393644,114.1860846
黃大仙,德望中學 (非住宅),德望學校,22.3344698,114.2194063
黃大仙,志蓮道5號,上元嶺志蓮道5號,22.340658,114.206059
黃大仙,慈安苑安欣閣,慈安苑1座安欣閣,22.348271,114.201857
黃大仙,慈康邨康健樓,慈康邨康健樓,22.3476372,114.2018749
黃大仙,慈康邨康德樓,慈康邨康德樓,22.3475776,114.2028038
黃大仙,慈康邨康添樓,慈康邨,22.3478307,114.2028926
黃大仙,慈康邨康潤樓,慈康邨康潤樓,22.3475732,114.203245
黃大仙,慈康邨康秀樓,慈康邨康秀樓,22.3476328,114.2023161
黃大仙,慈愛苑愛仁閣,慈愛苑2座愛仁閣,22.3496909,114.1988098
黃大仙,慈愛苑愛勤閣,慈愛苑6座愛勤閣,22.3502654,114.1984847
黃大仙,慈愛苑愛富閣,慈愛苑愛富閣,22.350784,114.199536
黃大仙,慈愛苑愛寧閣,慈愛苑1座愛寧閣,22.3500699,114.1980667
黃大仙,慈愛苑愛慧閣,慈愛苑4座愛慧閣,22.350105,114.199469
黃大仙,慈愛苑愛祥閣,愛祥閣,22.351085,114.199146
黃大仙,慈愛苑愛聰閣,慈愛苑3座愛聰閣,22.3495666,114.1993207
黃大仙,慈愛苑愛華閣,慈愛苑,22.3514728,114.1989725
黃大仙,慈樂邨樂仁樓,慈樂邨樂仁樓,22.3481173,114.199251
黃大仙,慈樂邨樂信樓,慈樂邨樂信樓,22.3471876,114.1990652
黃大仙,慈樂邨樂天樓,慈樂邨樂天樓,22.3492093,114.1978577
黃大仙,慈樂邨樂安樓,慈樂邨樂安樓,22.3480724,114.2000869
黃大仙,慈樂邨樂旺樓,慈樂邨樂旺樓,22.3480457,114.1986008
黃大仙,慈樂邨樂歡樓,慈樂邨樂歡樓,22.3463425,114.2005514
黃大仙,慈樂邨樂祥樓,慈樂邨,22.348923,114.199371
黃大仙,慈樂邨樂誠樓,慈樂邨樂誠樓,22.3477557,114.1982293
黃大仙,慈正邨正和樓,慈正邨,22.349888,114.202634
黃大仙,慈正邨正安樓,慈正邨,22.349888,114.202634
黃大仙,慈正邨正康樓,慈正邨正康樓,22.3491856,114.2035236
黃大仙,慈正邨正德樓,慈正邨,22.349888,114.202634
黃大仙,慈正邨正怡樓,慈正邨,22.349888,114.202634
黃大仙,慈正邨正明樓,慈正邨正明樓,22.3492159,114.2027806
黃大仙,慈正邨正暉樓,慈正邨,22.349888,114.202634
黃大仙,慈正邨正泰樓,慈正邨正泰樓,22.3504217,114.2028734
黃大仙,慈正邨正遠樓 (非住宅),正遠樓,22.3497473,114.2039307
黃大仙,慈正邨正遠樓,正遠樓,22.3497473,114.2039307
黃大仙,慈民邨民健樓,慈民邨民健樓,22.3482284,114.202409
黃大仙,慈民邨民泰樓,慈民邨民泰樓,22.3481688,114.2033378
黃大仙,慈民邨民裕樓,慈民邨民裕樓,22.3481826,114.2038023
黃大仙,慈雲山中心 大家樂 (非住宅),大家樂,22.3485826,114.2007956
黃大仙,慈雲山中心 手作功夫茶 (非住宅),慈雲山中心,22.3482388,114.2005514
黃大仙,慈雲山中心 森美奧厨房 (非住宅),慈雲山中心,22.3482388,114.2005514
黃大仙,慈雲山中心 百匯軒 (非住宅),百匯軒,22.3485864,114.2002567
黃大仙,慈雲山中心 薀莎餐廳 (非住宅),慈雲山中心,22.3482388,114.2005514
黃大仙,慈雲山中心 譚仔三哥米線 (非住宅),譚仔三哥米線,22.3473894,114.2005592
黃大仙,慈雲山慈康邨康添樓,慈康邨康添樓,22.3474998,114.2037094
黃大仙,慈雲山慈愛苑愛聰閣,慈愛苑3座愛聰閣,22.3495666,114.1993207
黃大仙,慈雲山慈樂邨樂信樓,樂信樓,22.3471447,114.1990916
黃大仙,斧山道運動場 (非住宅),斧山道運動場,22.3385102,114.2074587
黃大仙,新華樓 (非住宅),新華樓,22.3462192,114.1981596
黃大仙,新蒲崗爵祿街36號,爵祿街36號,22.3362258,114.1957446
黃大仙,星河明居C座,星河明居C座,22.3412363,114.2021072
黃大仙,曉暉花園5座 (非住宅),曉暉花園,22.3374008,114.2152699
黃大仙,東頭(二)邨興東樓,東頭(二)邨興東樓,22.333703,114.194145
黃大仙,東頭邨（二）貴東樓,東頭邨,22.3330896,114.1933484
黃大仙,樂富廣場 元氣壽司 (非住宅),Genki Sushi,22.3382401,114.1872689
黃大仙,樂富邨宏逸樓,樂富邨宏旭樓,22.3394452,114.1879191
黃大仙,樂富邨樂民樓,樂富邨樂民樓,22.3367469,114.1867157
黃大仙,橫頭磡邨宏基樓,橫頭磡邨宏基樓,22.3397492,114.188755
黃大仙,橫頭磡邨宏安樓,橫頭磡邨宏安樓,22.3403179,114.1873617
黃大仙,毓華街42號 (非住宅),永發大廈,22.3464408,114.2011827
黃大仙,毓華里8號永發大廈,永發大廈,22.3464408,114.2011827
黃大仙,永發大廈,永發大廈,22.3464408,114.2011827
黃大仙,沙田坳邨順田樓,沙田坳邨順田樓,22.3498996,114.1955589
黃大仙,海港花園3座,海港花園3座,22.3417939,114.212092
黃大仙,牛池灣西村,牛池灣西村,22.3370153,114.2076459
黃大仙,竹園北邨松園樓,竹園北邨,22.3459302,114.1914691
黃大仙,竹園北邨桃園樓,竹園北邨桃園樓,22.3470782,114.1947926
黃大仙,竹園北邨橡園樓,竹園北邨橡園樓,22.3464069,114.1942413
黃大仙,竹園南邨秀園樓,竹園南邨秀園樓,22.3444954,114.1923776
黃大仙,竹園南邨貴園樓,竹園南邨貴園樓,22.3439204,114.190636
黃大仙,竹園南邨趣園樓,竹園南邨趣園樓,22.3439041,114.1941888
黃大仙,竹園商場 麥當勞 (非住宅),麥當勞,22.3452079,114.1931226
黃大仙,竹園街市 (非住宅),竹園街市,22.3449502,114.1935096
黃大仙,竹園邨鵬程苑,鵬程苑,22.345681,114.190605
黃大仙,翠竹花園13座,翠竹花園13座,22.3464657,114.1891498
黃大仙,翠竹花園14座,翠竹花園14座,22.3460513,114.1892891
黃大仙,翠竹花園2座,翠竹花園2座,22.3464665,114.1885925
黃大仙,翠竹花園7座,翠竹花園7座,22.34603,114.1865258
黃大仙,翠鳳樓,翠鳳樓,22.3444993,114.1969057
黃大仙,荷里活廣場 麥當勞 (非住宅),麥當勞,22.340967,114.202068
黃大仙,華基大樓 (非住宅),華基大樓,22.346996,114.201191
黃大仙,華懋工業大廈 (非住宅),華懋工業大廈停車場,22.3386889,114.1997509
黃大仙,萬寶大廈,萬寶大廈,22.3468801,114.2028038
黃大仙,萬年戲院大廈 (非住宅),萬年戲院大廈,22.3470226,114.2023161
黃大仙,蒲明里6、8、10、12號及蒲惠里11號 (非住宅),慈雲山蒲明里6號,22.3463373,114.2009552
黃大仙,蒲明里6、8、10、12號及蒲惠里11號,港泰(竹園)護老院有限公司,22.344579,114.190644
黃大仙,蒲英里2-8號慈華大廈,慈華大廈,22.3465288,114.2021304
黃大仙,衍慶街2-32號新蒲崗大廈,新蒲崗大廈,22.3363251,114.1949783
黃大仙,觀鳳樓,觀鳳樓,22.34453,114.197662
黃大仙,譽‧港灣8座,譽·港灣,22.3333138,114.1963269
黃大仙,譽．港灣8庢,譽·港灣,22.3333138,114.1963269
黃大仙,豪苑商場 京都大酒樓 (非住宅),富臨皇宮,22.341974,114.196158
黃大仙,采頤花園1座,采頤花園五座,22.3357114,114.2033452
黃大仙,采頤花園5座,采頤花園五座,22.3357114,114.2033452
黃大仙,采頤花園7座,采頤花園7座,22.3356382,114.2025684
黃大仙,銀鳳街41號,竹園銀鳳街41號,22.3454577,114.1979292
黃大仙,順天邨天衡樓,順天邨,22.3248046,114.225967
黃大仙,香港九龍貝爾特酒店,九龍貝爾特酒店,22.3373351,114.1996225
黃大仙,香港神託會培敦中學 (非住宅),香港神託會培敦中學,22.3401613,114.2082141
黃大仙,高美樓,高美樓,22.3465005,114.2027922
黃大仙,鳳德商場 稻香超級漁港 (非住宅),稻香超級漁港,22.3434428,114.1994869
黃大仙,鳳德邨斑鳳樓,鳳德邨8座斑鳳樓,22.3433792,114.1999941
黃大仙,鳳德邨硃鳳樓,鳳德邨黛鳳樓,22.3435353,114.2023161
黃大仙,鳳德邨碧鳳樓,鳳德邨2座碧鳳樓,22.344932,114.2012015
黃大仙,鳳德邨黛鳳樓,鳳德邨黛鳳樓,22.3435353,114.2023161
黃大仙,鳳禮苑鳳禧閣,鳳禮苑A座鳳禧閣,22.3443523,114.2025251
黃大仙,黃大仙上邨昭善樓,黃大仙上邨昭善樓,22.342082,114.1908358
黃大仙,黃大仙上邨耀善樓,黃大仙上邨耀善樓,22.3424616,114.192006
黃大仙,黃大仙下邨龍光樓,龍光樓,22.34127,114.193586
黃大仙,黃大仙下邨龍昌樓,黃大仙下邨龍昌樓,22.3401684,114.1911563
黃大仙,龍蟠苑商場 (非住宅),鑽石山龍蟠苑,22.3418464,114.2012595
