地區,大廈名單,name,lat,lng
油尖旺,黃埔花園3期 大快活,黃埔花園必嘉街大快活,22.3051528,114.1866917
東區,小西灣綜合大樓,小西灣綜合大樓,22.2636175,114.2495885
東區,惠安苑Ｆ座,惠安苑F座,22.2854725,114.2133691
灣仔,禮頓道62號禮賢大廈,禮賢大廈,22.2773139,114.1844876
中西區,The L. Plaza Pacific Coffee,太平洋咖啡,22.2861208,114.1491964
九龍城,黃埔花園3期翠楊苑６座,中原地產九龍昇御門分行 Centaline Property Chatham Gate Branch,22.3041928,114.187568
東區,富景花園７座,富景花園7座,22.2615184,114.2519128
黃大仙,譽．港灣6座,譽·港灣,22.3333138,114.1963269
油尖旺,香港理工大學包玉剛圖書館,香港理工大學包玉剛圖書館,22.3033809,114.1798966
大埔,海日灣II 11座,海日灣 The Horizon,22.4302211,114.2074882
元朗,Park Yoho Venezia 7B座,Phase 1B - PARK YOHO Venezia,22.4508055,114.0526512
九龍城,榮林大廈 車仔麵綱記,車仔麵綱記,22.3128625,114.1861029
西貢,蔚藍灣畔2座,蔚藍灣畔2座,22.315973,114.2646195
屯門,上源2B座,上源 Lepont,22.3727812,114.0034335
葵青,和豐工業中心 萃華飯堂,萃華飯堂,22.3678645,114.13676
中西區,帝景園4座,帝景園4座,22.275276,114.1528764
西貢,藍塘傲第５座,藍塘傲 Alto Residences,22.3032243,114.258237
屯門,香港黃金海岸二期11座,香港黃金海岸21座,22.367872,113.993138
南區,奧華·時尚精品酒店．南岸,Ovolo Southside,22.249579,114.1690321
大埔,龍尾村 BB開心棧,BB開心棧,22.472703,114.2302588
中西區,"水街18號,翠景閣",翠景閣,22.2854601,114.1392919
中西區,Amber House 1座,西環薄扶林道63號薄扶林道63號,22.285327,114.1379992
中西區,Amber House１座,西環薄扶林道63號薄扶林道63號,22.285327,114.1379992
中西區,Daisy Court,Daisy Court,22.2803333,114.151425
中西區,Dotcom House,DOTCOM HOUSE,22.283688,114.153877
中西區,H Code (低座),H Code,22.2821652,114.1545301
中西區,H Code 低座,H Code,22.2821652,114.1545301
中西區,H Code 樹屋,H Code,22.2821652,114.1545301
中西區,Hotel Jen Hong Kong,香港JEN酒店,22.2858489,114.135021
中西區,Imperial Kennedy 花園餐廳,Imperial Kennedy,22.2821102,114.1287384
中西區,LA HACIENDA A座,La Hacienda,22.2603978,114.1511347
中西區,ONE · EIGHT · ONE酒店,One-Eight-One Hotel & Serviced Residences,22.2873529,114.1367366
中西區,One-Eight-One Hotel 壹八壹冰室,壹八壹冰室 The Tea Room,22.2873529,114.1367366
中西區,Ovolo Central酒店,Ovolo Central,22.28023,114.154598
中西區,Soho House Hong Kong,Soho House Hong Kong,22.2878391,114.1467251
中西區,一號廣場,一號廣場,22.28257,114.154679
中西區,三台大廈,三台大廈,22.2870582,114.1517723
中西區,上環市政大廈,上環市政大廈,22.2861898,114.149703
中西區,上環市政大廈熟食中心,上環街市及熟食中心,22.286011,114.149629
中西區,上環文娛中心,上環文娛中心,22.2861716,114.1497647
中西區,上環街市及熟食中心,Sheung Wan Market and Cooked Food Centre,22.286011,114.149629
中西區,世紀大廈2座,世紀大廈二座,22.273133,114.155487
中西區,世紀廣場 星巴克咖啡,星巴克,22.2815913,114.1559989
中西區,世紀廣場,世紀廣場,22.2815521,114.1559419
中西區,中匯大廈,Blooming Garden Atelier Limited,22.2811461,114.1568174
中西區,中國工商銀行大廈,ICBC Tower,22.2768058,114.1651426
中西區,中國銀行大廈 中國會,中國會,22.2802904,114.1601942
中西區,中國銀行大廈中國會,中國會,22.2802904,114.1601942
中西區,中央廣場 Dragon I,Dragon-i,22.2805556,114.1547222
中西區,中央廣場,中央廣場,22.2806848,114.1546646
中西區,中建大廈,中建大廈,22.2811499,114.1573655
中西區,中環中心,中環中心,22.2846202,114.1547347
中西區,中環李錦記,中環李錦記,22.2834411,114.1564064
中西區,中環泛海大廈,泛海大廈,22.2830055,114.155849
中西區,中環街市,中環街市,22.283944,114.1555478
中西區,中華總商會大廈 美心MX,美心MX,22.283433,114.157377
中西區,中銀大廈,中銀大廈,22.2793043,114.1614931
中西區,五福大廈 Little Creatures,Little Creatures Brewing Kennedy Town,22.2838778,114.128425
中西區,交易廣場,交易廣場,22.2840347,114.1577759
中西區,交易廣場3座,交易廣場3座,22.2845339,114.1573585
中西區,交易廣塲1座,交易廣塲三座,22.2845554,114.1574641
中西區,交易廣塲2座 Classified,交易廣場,22.2840347,114.1577759
中西區,交易廣塲2座,"交易廣場1,2座",22.2836391,114.1583339
中西區,伊利近街49號 Bouchon Bistro Francais,Bouchon Bistro Francais,22.2813844,114.1524352
中西區,余道生行 麥當勞,麥當勞,22.2824,114.156237
中西區,信德中心 招商局大廈,信德中心 - 招商局大廈,22.287639,114.1524863
中西區,信德中心 美心皇宮,美心皇宮,22.287853,114.151829
中西區,信德中心西座,信德中心西翼,22.2879654,114.1511831
中西區,信誠廣場,信诚广场,22.2827684,114.1550465
中西區,偉利大廈,偉利大廈,22.286251,114.152836
中西區,僑發大廈 後座(A座),僑發大廈A座,22.286328,114.146366
中西區,僑發大廈,僑發大廈,22.2866074,114.1463971
中西區,元創方,元創方 - Staunton,22.2833472,114.1515992
中西區,兆景閣 The Diner,The Diner,22.2801607,114.1545894
中西區,兆祥坊兆祥大廈,兆祥大廈,22.2873797,114.1396854
中西區,兆祥大廈,兆祥大廈,22.2873797,114.1396854
中西區,兆英商業大廈,兆英商業大廈,22.2846809,114.1537539
中西區,光前大廈1座,光前大廈1座,22.2870314,114.1365618
中西區,八達大廈 大快活,大快活,22.285842,114.1490781
中西區,公爵大廈,公爵大廈,22.2809033,114.1577246
中西區,凌霄閣,凌霄閣,22.2712357,114.1499638
中西區,列聖宮,列聖宮,22.283999,114.15009
中西區,利安大廈,利安大廈,22.287002,114.1393138
中西區,利時大廈,利時大廈,22.286689,114.1386097
中西區,利源西街27-29號 R&R Bagels,R&R Bagels,22.2832724,114.1564066
中西區,利源西街28號 R&R Bagels,R&R Bagels,22.2832724,114.1564066
中西區,創業商場,創業商場,22.2866977,114.1367091
中西區,力寶中心1座,EP&T Global,22.279536,114.16335
中西區,力寶中心1期,EP&T Global,22.279536,114.16335
中西區,加冕臺1號,半山加冕臺1號,22.2823544,114.1514589
中西區,加列山道34號,山頂加列山道34號,22.2615204,114.1499252
中西區,加州大廈,加州大廈,22.2809076,114.1555006
中西區,勝基中心,勝基中心,22.2846531,114.1520985
中西區,勵精中心,勵精中心,22.2831406,114.1551291
中西區,勵精中心地下,勵精中心,22.2831406,114.1551291
中西區,匡景居,匡景居,22.2831912,114.1513437
中西區,卑路乍街110-112號 佳記餐廳,佳記餐廳,22.2824096,114.1277172
中西區,卑路乍街122號,堅尼地城卑路乍街122號,22.2823439,114.1273242
中西區,卑路乍街123號,西環卑路乍街123號,22.2826393,114.1278695
中西區,卑路乍街125號,堅尼地城卑路乍街125號,22.282643,114.1277953
中西區,卑路乍街136-142號 可可店,可可店,22.2821097,114.1269981
中西區,卑路乍街17-35號,西環卑路乍街17號,22.2838757,114.1308814
中西區,卑路乍街177-185號西環新樓,西環新樓,22.282362,114.126289
中西區,卑路乍街3號 德記潮州菜館,德記,22.285553,114.1323013
中西區,卑路乍街54號 卓記粥店,卓記粥店,22.2826526,114.1292368
中西區,南北行大廈,南北行大廈,22.2867783,114.1486751
中西區,南和行大廈,南和行大廈,22.2872074,114.1492739
中西區,南源大廈,南源大廈,22.2849593,114.1560278
中西區,南賓大廈,南賓大廈,22.275927,114.1563704
中西區,南雄大廈,南雄大廈,22.2853578,114.1320214
中西區,卿旺大廈 翠湖海鮮酒家,翠湖海鮮飯店,22.283317,114.127546
中西區,厚福大廈,厚福大廈,22.2860797,114.1336703
中西區,厚福大樓,厚福大樓,22.286338,114.133679
中西區,司徒濂石樓,司徒濂石樓,22.284809,114.149976
中西區,吉席街93號地下 Mama Malouf,Mama Malouf,22.2831694,114.1269333
中西區,同興樓 豪景茶餐廳,同興樓,22.2833719,114.1276923
中西區,同興樓,同興樓,22.2832153,114.1298383
中西區,同達大廈,同達大廈,22.2867711,114.1371772
中西區,告羅士打大廈,告羅士打大廈,22.2815228,114.1578772
中西區,和興商業大廈,和興商業大廈,22.2850577,114.1537968
中西區,啟德商業大廈 Pica Pica,Pica Pica,22.2870731,114.150607
中西區,喜訊大廈 寶湖海鮮酒家,寶湖海鮮酒家,22.2840389,114.1549107
中西區,嘉兆臺1座,嘉兆台1座,22.279636,114.1531551
中西區,嘉利大廈 La Vache!,La Vache!,22.282447,114.152717
中西區,嘉和苑,嘉和苑,22.283135,114.141287
中西區,嘉咸市集,嘉咸市集,22.2833092,114.1535273
中西區,嘉咸街23號 無肉食,中環嘉咸街23號,22.2834075,114.1537878
中西區,嘉寶大廈,嘉寶大廈,22.2855747,114.1478638
中西區,嘉盛閣地下,嘉盛閣,22.2866434,114.1424258
中西區,嘉華大廈,嘉華大廈,22.2836675,114.1420766
中西區,嘉諾撒醫院,嘉諾撒醫院,22.277345,114.153853
中西區,嘉輝大廈,嘉輝大廈,22.2816187,114.1503915
中西區,嘉麗苑,嘉麗苑,22.2841311,114.1434374
中西區,四寶大廈,四寶大廈,22.280598,114.15617
中西區,國際金融中心 Duck & Waffle,Duck and Waffle,22.2851589,114.1588412
中西區,國際金融中心 Isola Bar & Grill,ISOLA bar grill,22.2858103,114.1583472
中西區,國際金融中心 Shake Shack,Shake Shack,22.2853732,114.1589297
中西區,國際金融中心 利苑酒家,Lei Garden Restaurant (Central),22.284147,114.1587511
中西區,國際金融中心 千両,千両,22.2848917,114.1593789
中西區,國際金融中心 翡翠拉麵小籠包,翡翠拉麵小籠包 - 中環,22.2845458,114.1579941
中西區,國際金融中心1期,国际金融中心,22.28588,114.158131
中西區,國際金融中心2期,國際金融中心二期,22.285232,114.1592596
中西區,國際金融中心商場 Blue Bottle Coffee,Blue Bottle Coffee,22.2851589,114.1588412
中西區,國際金融中心商場 Duck & Waffle,Duck and Waffle,22.2851589,114.1588412
中西區,國際金融中心商場 Greyhound Café,Greyhound Cafe,22.2855858,114.1590567
中西區,國際金融中心商場 Pret A Manger,Pret,22.2844306,114.1584556
中西區,國際金融中心商場 無二,国际金融中心,22.28588,114.158131
中西區,國際金融中心商場 翡翠拉麵小籠包,翡翠拉麵小籠包 - 中環,22.2845458,114.1579941
中西區,國際金融中心商場,国际金融中心,22.28588,114.158131
中西區,地利根德閣1座,地利根德閣1座,22.2739031,114.1521797
中西區,地利根德閣2座,地利根德閣2座,22.27439,114.1521333
中西區,均益大廈2期D座,均益大廈2期商場,22.2875172,114.1380481
中西區,均益大廈3期A座,均益大廈2期商場,22.2875172,114.1380481
中西區,均益大廈3期B座,均益大廈第三期商場,22.2881959,114.1402894
中西區,均益大廈3期Ｂ座,均益大廈2期商場,22.2875172,114.1380481
中西區,均益大廈三期B座,均益大廈第三期商場,22.2881959,114.1402894
中西區,城紫蘭樓,紫蘭樓,22.2819117,114.1309879
中西區,堅尼地城社區綜合大樓,堅尼地城社區綜合大樓,22.281904,114.12908
中西區,堅道111號 Filters Lane,Filters Lane,22.2826043,114.1507349
中西區,堅道120號,海雅閣,22.2826782,114.1499619
中西區,堅道27號 名閣,名閣,22.2803743,114.1537985
中西區,堅道47號,半山堅道47號,22.2805911,114.1529893
中西區,堅道51-53號 星巴克咖啡,星巴克,22.2809427,114.1526535
中西區,堅麗閣,堅麗閣,22.2762182,114.1574451
中西區,士丹頓街32A-32C號,士丹頓街32號,22.2821274,114.1524933
中西區,士丹頓街34B號,中環士丹頓街34號,22.2823763,114.1523449
中西區,士丹頓街52-56號 Stazione Novella,Stazione Novella,22.282691,114.1518692
中西區,士美菲路85號寶德大廈,寶德大廈,22.27944,114.129254
中西區,士美菲路市政大廈,士美非路巿政大廈,22.2816862,114.1286074
中西區,士美菲路街市及熟食中心,士美菲路街市及熟食中心,22.2816862,114.1286074
中西區,士美非路市政大廈,士美非路巿政大廈,22.2816862,114.1286074
中西區,多寧大廈,多寧大廈,22.2872562,114.1513457
中西區,大學堂宿舍,香港大學大學堂,22.2635104,114.1352124
中西區,大安臺1- 4號安樂大樓,On Lok Building,22.284212,114.1473493
中西區,大安臺安樂大樓,樂居工業大廈,22.3140041,114.218316
中西區,大新閣,大新閣,22.2859318,114.1322537
中西區,大會堂 美心皇宮,美心皇宮,22.28237,114.161759
中西區,大會堂,香港大會堂,22.2822389,114.1616361
中西區,大眾銀行中心,大眾銀行中心,22.2850158,114.1548504
中西區,大館 樂茶軒,LockCha 樂茶軒,22.2816472,114.1543237
中西區,太古廣場 Kokomi,Kokomi,22.2773539,114.1661983
中西區,太古廣場,太古廣場,22.277152,114.1648871
中西區,太古廣場2座,elyze定位修形-太古廣場2座23樓,22.277509,114.166341
中西區,太古廣場二座,太古廣場,22.277152,114.1648871
中西區,太子大廈,太子大廈,22.2811963,114.1592117
中西區,太平大樓,太平大樓,22.285539,114.147699
中西區,奕居,奕居,22.2775031,114.1663406
中西區,女子俱樂部,女子俱樂部,22.2754096,114.1538286
中西區,好利商業大廈 The Port LKF,蘭桂坊,22.2810697,114.1554776
中西區,如意大樓,如意大樓,22.2836251,114.1309763
中西區,威享大廈,威享大廈,22.2839618,114.1520758
中西區,威利麻街23號,西營盤威利麻街23號,22.2882472,114.1450173
中西區,威勝商業大廈,威勝商業大廈,22.2877826,114.1489052
中西區,威基商業中心 新森林,新森林焗之專門店 - 中環,22.2838566,114.153996
中西區,威基商業中心,威基商業中心,22.2838713,114.1540105
中西區,威豪閣,威豪閣,22.2755112,114.1588195
中西區,威靈頓街50號 一幻拉麵,一幻拉麵（中環店）,22.2817015,114.1554078
中西區,威靈頓街86-90號 BEP Vietnamese Kitchen,BEP Vietnamese Kitchen,22.2828268,114.1545601
中西區,威靈頓街88-90號 BEP Vietnamese Kitchen,BEP Vietnamese Kitchen,22.2828268,114.1545601
中西區,孖沙衍7-11號,上環孖沙街7-11號祥泰大廈,22.2854382,114.1518198
中西區,孖沙街7-11號,上環孖沙街7-11號祥泰大廈,22.2854382,114.1518198
中西區,學士臺2座,學士臺2座,22.2822873,114.1317195
中西區,安慶大廈,安慶大廈,22.2805487,114.1564993
中西區,安樂大樓,安樂大樓,22.2863307,114.133322
中西區,安樂樓 Tchin Tchin,Tchin Tchin,22.2823039,114.1534514
中西區,安皇商業大廈,安皇商業大廈,22.2807831,114.1564644
中西區,安蘭街 Ryota Kappou Modern,Ryota Kappou Modern,22.2806191,114.1568253
中西區,宏基國際賓館,宏基國際賓館,22.278663,114.153343
中西區,宜必思香港中上環酒店 糖心軒,糖心軒,22.2875387,114.1472762
中西區,宜必思香港中上環酒店,宜必思香港中上環酒店,22.287596,114.1475925
中西區,富國大廈 Winstons Coffee,Winstons Coffee,22.28704,114.144272
中西區,富林苑C座,富林苑,22.279679,114.131662
中西區,富樂大樓,富樂大樓,22.2862802,114.1508328
中西區,富輝商業中心 聚點坊點心專門店,聚點坊,22.2850628,114.1512299
中西區,寶德大廈,寶德大廈,22.27944,114.129254
中西區,寶德臺,寶德臺,22.2740363,114.1620031
中西區,寶慶大廈,寶慶大廈,22.284631,114.146798
中西區,寶林閣,寶林閣,22.2794254,114.1543668
中西區,寶樺臺,Birchwood Place,22.2750691,114.1609813
中西區,寶泰大廈,寶泰大廈,22.285674,114.1483774
中西區,寶翠園5座,寶翠園5座,22.2850841,114.1336239
中西區,寶翠園6座,寶翠園6座,22.2854621,114.1334381
中西區,寶翠園第六座,寶翠園,22.2847577,114.1326485
中西區,寶翠閣B座,寶翠閣A座,22.2850662,114.1319268
中西區,寶翠閣地下,寶翠閣A座,22.2850662,114.1319268
中西區,寶華軒,寶華軒,22.2833995,114.1506917
中西區,居仁閣,居仁閣,22.2855253,114.1387913
中西區,山道4-16號,石塘咀山道4-16號,22.2865584,114.1350638
中西區,山道4-16號業昌大廈,業昌大廈,22.2863573,114.1351562
中西區,山頂廣場 麥奀雲吞麵世家,麥奀雲吞麵世家,22.2702037,114.1497838
中西區,山頂廣場 麥當勞,麥當勞,22.2700006,114.1498922
中西區,山頂廣場,山頂廣場,22.2701512,114.1496575
中西區,山頂明德國際醫院員工宿舍,明德國際醫院,22.259111,114.1493234
中西區,工銀大廈,工銀大廈,22.2837971,114.1544905
中西區,差館上街18-20號,太平山差館上街18號,22.2850074,114.1483567
中西區,帝景園2座,帝景園2座,22.2761666,114.1523423
中西區,帝景園3座,帝景園3座,22.2754539,114.1529926
中西區,帝景園第２座,帝景園,22.275279,114.152925
中西區,帝景園第４座,帝景園,22.275279,114.152925
中西區,干德道40號,半山干德道40號,22.2802636,114.1494275
中西區,干德道60號地下,號地下,22.2818668,114.1469428
中西區,干諾道西118號,干諾道西118號,22.2882441,114.1445856
中西區,康威花園A座,康威花園,22.287179,114.1497071
中西區,廣基工廠大廈,廣基工廠大廈,22.2817414,114.1218722
中西區,廣堅大廈,Caine Building,22.2799118,114.1536196
中西區,建安商業大廈,建安商業大廈,22.2851131,114.1515672
中西區,建業榮基中心,建業榮基中心,22.2820634,114.1531764
中西區,律政中心西座,律政中心,22.279968,114.157873
中西區,律敦治中心帝納大廈,律敦治中心,22.2800249,114.1570535
中西區,德己立街27-30號 Al's Diner,AL'S DINER (美國菜),22.2809203,114.1551272
中西區,德輔道中133號,中環德輔道中133號,22.2852998,114.1552684
中西區,德輔道中19號環球大廈,環球商場,22.2824934,114.1576903
中西區,德輔道西201號,西環德輔道西201號,22.2880602,114.1427428
中西區,德輔道西9號 Heavenly Dance,HeavenlyDance,22.287846,114.1469777
中西區,德輔道西9號,德輔道西九號,22.2880164,114.1474189
中西區,怡和大廈,怡和大廈,22.2829926,114.1592393
中西區,怡景花園2座,怡景花園,22.2865913,114.13828
中西區,怡林閣A座,怡林閣,22.2750148,114.1285206
中西區,恆和中心,Continental Place 恒和,22.2863332,114.1522678
中西區,恆陞大樓,恆陞大樓,22.285038,114.1415433
中西區,恒輝大廈,恆輝大廈,22.2859621,114.1401034
中西區,恒陞大樓,恆陞大樓,22.285027,114.141567
中西區,恒隆大廈,恆隆大廈,22.2848078,114.1526239
中西區,摩星嶺道56-62號翠海別墅B座,翠海別墅B座,22.2731689,114.1210594
中西區,擺花街9號,擺花街9號,22.2826125,114.1545369
中西區,政府總部西翼,香港特別行政區政府總部,22.2802975,114.16586
中西區,敦皓,The Morgan 敦皓,22.2801964,114.1489001
中西區,文咸東街49號 一牛越南粉專門店,一牛越南粉專門店,22.2857993,114.1522262
中西區,文華東方酒店 文華廳,香港文華東方酒店,22.2818572,114.1593819
中西區,文華東方酒店 文華扒房及酒吧,Mandarin Grill + Bar,22.281928,114.159408
中西區,文華東方酒店,香港文華東方酒店,22.2818572,114.1593819
中西區,新世界大廈 翠亨邨,翠亨邨,22.2805082,114.1573034
中西區,新世界大廈,新世界大廈,22.2804971,114.1573817
中西區,新世界大廈I座,新世界大廈一座,22.2806536,114.1570798
中西區,新中環大廈,新中環大廈,22.2839298,114.153076
中西區,新中環大廈地下 美華茶餐廳,美華茶餐廳,22.2839301,114.1529988
中西區,新威大廈 大呷台灣,大呷台灣,22.2834319,114.1543544
中西區,新成大廈,新成大廈,22.2868782,114.1484175
中西區,新景樓 讚記廚房,讚記廚房,22.2863216,114.1334534
中西區,新街市街8號海港酒家 (上環店),海港酒家,22.2872279,114.1498576
中西區,昌泰商業大廈,昌泰商業大廈,22.2863377,114.1515759
中西區,昌盛大廈,卓健醫療中心 (上環-昌盛大廈),22.2863219,114.151797
中西區,明德國際醫院員工宿舍,明德國際醫院,22.259111,114.1493234
中西區,明珠閣,明珠閣,22.2847151,114.131255
中西區,星輝大廈,星輝大廈,22.2874955,114.1446321
中西區,普頓臺,普頓臺,22.28763,114.146134
中西區,景輝大廈,景輝大廈,22.2850494,114.1377722
中西區,景輝大廈B座,景輝大廈B座,22.2850555,114.1378275
中西區,暢園,暢園,22.28405,114.146521
中西區,最佳盛品酒店尖沙咀,最佳盛品酒店尖沙咀,22.300236,114.175856
中西區,會德豐大廈,會德豐大廈,22.282005,114.1573585
中西區,朝光樓,朝光樓,22.2870689,114.1397899
中西區,東南大廈,東南大廈,22.2858311,114.1426697
中西區,東昌大廈,東昌大廈,22.279945,114.1627109
中西區,東邊街36號,西營盤東邊街36號,22.2867588,114.1438698
中西區,梁輝臺,半山梁輝臺,22.2806392,114.1522983
中西區,梁輝臺4號,新發樓,22.2804725,114.1522726
中西區,梅苑 1 座,梅苑1座,22.2734437,114.1539912
中西區,梅苑 1座,梅苑1座,22.2734437,114.1539912
中西區,業昌大廈,業昌大廈,22.2865584,114.1350638
中西區,榮華閣1座,榮華閣1座,22.284249,114.1465597
中西區,機利文新街26-28號 紅城冰室,紅城冰室,22.2850305,114.1542292
中西區,歌賦街41號,中環歌賦街41號,22.284397,114.1521898
中西區,歐陸貿易中心,歐陸貿易中心,22.282815,114.157614
中西區,正街街市,正街街市,22.2863349,114.142031
中西區,歷山大廈 8 1/2 Otto E Mezzo Bombana,8 1/2 Otto e Mezzo BOMBANA,22.281517,114.1587556
中西區,歷山大廈 Otto e Mezzo 8½ Bombana,8 1/2 Otto e Mezzo BOMBANA,22.281517,114.1587556
中西區,歷山大廈,星巴克,22.281453,114.1584445
中西區,殷榮閣,殷榮閣,22.2799582,114.1502754
中西區,殷樺花園1期,殷樺花園,22.2812739,114.1480773
中西區,殷樺花園第一期,殷樺花園第一期,22.2815041,114.1483479
中西區,殷豪閣,殷豪閣,22.278544,114.151949
中西區,水坑口街18號,水坑口水坑口街18號,22.2858466,114.1481262
中西區,水坑口街22號 The Lot on Possession,THE LOT ON POSSESSION,22.2857743,114.1480253
中西區,水坑口街26號,水坑口街26號,22.2855086,114.1479753
中西區,水街47號,水街47號,22.2851363,114.1390467
中西區,永和街和興商業大廈,和興商業大廈,22.2850509,114.1538039
中西區,永安中心,永安中心,22.2866525,114.153039
中西區,永安集團大廈,永安集團大廈,22.283883,114.156478
中西區,永富大廈,永富大廈,22.2850678,114.1539785
中西區,永恒商業大廈,永恆商業大廈,22.2836316,114.1546414
中西區,泓都1座,泓都1座,22.2834916,114.1261361
中西區,泛海大廈,泛海大廈,22.2830055,114.155849
中西區,泰發大廈,泰發大廈,22.287291,114.1459326
中西區,泰達大廈,泰達大廈,22.2859034,114.151988
中西區,活託邦,Oootopia West 活託邦 西環,22.2861246,114.1336694
中西區,浚峯,The Hudson,22.2815264,114.1271547
中西區,海富中心 米線陣,米線陣,22.2792539,114.1652635
中西區,海富中心 麥當勞,麥當勞,22.2793623,114.1649799
中西區,海富中心,海富中心寫字樓1座,22.279499,114.1647831
中西區,海富中心1座,海富中心寫字樓1座,22.279499,114.1647831
中西區,海富中心II座,黃瑞華律師_海富中心2/F,22.279306,114.165536
中西區,海景大廈,Sea View Mansion,22.2881338,114.1461184
中西區,海雅閣,海雅閣,22.2827158,114.1498949
中西區,渣打銀行大廈,渣打銀行大廈,22.2803829,114.159077
中西區,港鐵中環站,港鐵中環站,22.2818953,114.15746
中西區,港鐵香港站 添好運點心專門店,添好運點心專門店,22.2849499,114.1579736
中西區,港鐵香港站,港鐵香港站,22.284377,114.158056
中西區,滙豐總行大廈,滙豐總行大廈,22.2802222,114.1593865
中西區,滙財中心,滙財中心,22.282441,114.154713
中西區,濂溪別業,濂溪別業,22.2841176,114.1391436
中西區,無限極廣場 潮江春,潮江春,22.2863732,114.153541
中西區,環球大廈,環球商場,22.2824934,114.1576903
中西區,畢街11號 長龍食府,長龍食府,22.2853935,114.1513463
中西區,畢街7-9號 生記粥品專家,生記粥品專家 Sang Kee Congee Shop,22.2853075,114.1516804
中西區,百年大樓,百年大樓,22.281727,114.126033
中西區,百年大樓2座,百年大樓,22.281727,114.126033
中西區,皇后大道中100號,100qrc,22.2833443,114.1549433
中西區,皇后大道中29號,中環皇后大道中29號,22.2817439,114.1568012
中西區,皇后大道西 345-345A號,西營盤皇后大道西345號,22.2870272,114.1410709
中西區,皇后大道西110號 Okra Hong Kong,OKRA Hong Kong,22.2862261,114.1461224
中西區,皇后大道西206號,西環皇后大道西206號,22.2867257,114.1441612
中西區,皇后大道西226-228號及東邊街23A號,23A,22.2868118,114.1436446
中西區,皇后大道西26號,皇后大道西26號,22.2866015,114.1479937
中西區,皇后大道西293號,西環皇后大道西293號,22.2870204,114.1423825
中西區,皇后大道西420號 藍山食坊,藍山食坊,22.2863981,114.1387964
中西區,皇后大道西509號 幸鮨屋,號 幸鮨屋,22.2866597,114.1335063
中西區,皇后大道西576-584號 讚記廚房,讚記廚房,22.2863216,114.1334534
中西區,皇后大道西596號 嘉興餐廳,嘉興餐廳,22.2864876,114.1329938
中西區,盈基花園3座桃李閣,盈基花園3座桃李閣,22.2831928,114.1308137
中西區,益豐花園B座,益豐花園停車場,22.2857663,114.1321659
中西區,真光大廈,真光大廈,22.2855513,114.1403589
中西區,石塘咀市政大廈 海記海鮮大牌檔,海記海鮮大牌檔,22.2854339,114.1360737
中西區,石塘咀市政大廈,石塘咀市政大廈(體育館),22.2855473,114.136225
中西區,石山街12號 民華餐廳,民華餐廳,22.2821116,114.1285063
中西區,石板街酒店 Gradini意大利餐廳,Gradini Ristorante E Bar Italiano,22.282862,114.155404
中西區,砵甸乍街36號,中環砵甸乍街36號,22.2820969,114.1549148
中西區,碧雲樓,碧雲樓,22.275174,114.159651
中西區,福臨閣,福臨閣,22.2817893,114.1505541
中西區,福陞商場,福陞商場,22.2859808,114.1487032
中西區,福陞閣,福陞閣,22.2859623,114.1486962
中西區,秀麗閣,秀麗閣,22.282487,114.143151
中西區,科達中心,科達中心,22.2763632,114.1562206
中西區,第一街45號,西營盤第一街45號,22.286622,114.14271
中西區,第一街81號,西環第一街81號,22.2866328,114.1418577
中西區,第三街127B號地下 Shop9 Restaurant & Lounge,Shop9 Restaurant and Lounge,22.2859638,114.1400945
中西區,約克大廈,約克大廈,22.2806996,114.1576609
中西區,統一中心,統一中心,22.2784312,114.1654177
中西區,維壹,維壹,22.287175,114.133016
中西區,維港峰,維港峰,22.2873022,114.1372603
中西區,縉城峰2座,縉城峰2座,22.286407,114.1426813
中西區,置地廣場 Fuel Espresso,Fuel Espresso HK,22.2806127,114.157725
中西區,置地廣場 MAK MAK,Mak Mak,22.2805097,114.1580799
中西區,置地廣場 Mak Mak,Mak Mak,22.2805097,114.1580799
中西區,置地廣場 Zuma Hong Kong,Zuma Hong Kong,22.280963,114.1581921
中西區,置地廣場,置地廣塲中庭,22.2806759,114.1576919
中西區,置地廣塲 Café Landmark,CAFÉ LANDMARK,22.280545,114.157903
中西區,置地廣塲 公爵大廈,公爵大廈,22.2809033,114.1577246
中西區,置地廣塲,置地廣塲中庭,22.2806759,114.1576919
中西區,置地廣塲中庭,置地廣塲,22.2806759,114.1576919
中西區,置地文華東方酒店 SOMM,香港置地文華東方酒店,22.280518,114.157939
中西區,羅便臣道1A號,雅慧園,22.2766333,114.1547807
中西區,羅便臣道31號,羅便臣道31號,22.2791434,114.1512973
中西區,羅便臣道44號,羅便臣道44號,22.2795558,114.1513785
中西區,美國銀行中心 大快活,大快活,22.280544,114.163083
中西區,美國銀行中心,美國銀行中心,22.2806391,114.1630668
中西區,美國領事館,美國駐香港及澳門總領事館,22.2781828,114.1586506
中西區,美暉大廈 新興食家,新興食家,22.2829656,114.1282358
中西區,美菲閣2座,美菲閣2座,22.2820974,114.1277945
中西區,美蘭閣,美蘭閣,22.2812868,114.1518082
中西區,翠景閣,翠景閣,22.2858214,114.1340652
中西區,翠海別墅A座,翠海別墅A座,22.2734889,114.1206878
中西區,翠海別墅B座,翠海別墅B座,22.2731689,114.1210594
中西區,翠海別墅Ｂ座,翠海別墅B座,22.2731689,114.1210594
中西區,翡格酒店,the Figo,22.2864651,114.1471635
中西區,翰林軒1座,翰林軒1座,22.2815797,114.1302563
中西區,聖佐治大廈,聖佐治大廈,22.2820531,114.1589713
中西區,聖保羅書院,聖保羅書院,22.2847973,114.1388113
中西區,聖保羅男女中學,聖保羅男女中學,22.2756756,114.1579986
中西區,聖保羅男女中學舍堂,聖保羅男女中學,22.2756756,114.1579986
中西區,聖公會聖彼得小學,聖公會聖彼得小學,22.2849478,114.1345446
中西區,聖嘉勒女書院,聖嘉勒女書院,22.272921,114.122049
中西區,聖嘉勒小學,聖嘉勒小學,22.2834736,114.1404319
中西區,聖若瑟堂,中環花園道37號,22.2772809,114.1580088
中西區,聚賢居2座 Classified,Classified,22.283825,114.150762
中西區,聯友新樓 佳記餐廳,佳記餐廳,22.2824096,114.1277172
中西區,聯友新樓,聯友新樓,22.2823953,114.127841
中西區,聯威商業大廈,聯威商業大廈,22.2879976,114.1453447
中西區,聯德新樓,聯德新樓,22.2817552,114.1282326
中西區,聯發商業中心,聯發商業中心,22.2862617,114.1484023
中西區,聯興新樓,聯興新樓,22.2815906,114.1278529
中西區,聯邦花園巴黎閣,Realty Gardens Blk 2 Paris Court,22.28182,114.145001
中西區,致生大厦,致生大廈,22.2832469,114.1539733
中西區,興華大廈A座,興華大廈,22.2840637,114.142544
中西區,興華大廈M座,興華大廈,22.2840637,114.142544
中西區,興華大廈Ｍ座,興華大廈,22.2840637,114.142544
中西區,舊山頂道10號,Ladies Recreation Club,22.2754096,114.1538286
中西區,花園台2座,花園台2座,22.2759215,114.1543163
中西區,花園台3座,花園台3座,22.2756382,114.1541769
中西區,英皇商業中心,英皇商業中心,22.2832001,114.1570589
中西區,英華閣,英華閣,22.2848893,114.1428262
中西區,荊威廣場,荊威廣場,22.2810822,114.1561883
中西區,荔安大廈,荔安大廈,22.2869935,114.139155
中西區,荷李活中心 TMK Punk & Rolls,TMK Punk & Rolls,22.2865801,114.1472457
中西區,荷李活中心,荷李活中心,22.2864651,114.1471635
中西區,荷李活道192號,太平山荷李活道192A號,22.2852097,114.1482791
中西區,荷李活道77-81A號,中環荷李活道77a號,22.2834409,114.1525781
中西區,莊士大廈地下 麥當勞,麥當勞,22.2836118,114.1571733
中西區,華冠大廈,華冠大廈,22.284822,114.149499
中西區,華商會所大廈 譚仔雲南米線,譚仔雲南米線,22.2763031,114.1732394
中西區,華大盛品酒店,華大盛品酒店,22.28728,114.139121
中西區,華寶大廈,華寶大廈,22.2839025,114.1292112
中西區,華懋廣場II期,華懋廣場Ⅱ期,22.2854598,114.1553218
中西區,華懋荷李活中心,華懋荷李活中心,22.281967,114.15442
中西區,華源大廈,華源大廈,22.284576,114.153843
中西區,華秦國際大廈,華秦國際大廈,22.285652,114.1494405
中西區,華美達海景酒店,華美達海景酒店,22.2869928,114.1435356
中西區,華輝閣,華輝閣,22.2847757,114.1423794
中西區,華麗都會酒店,華麗都會酒店,22.2868357,114.1411637
中西區,萊德商業中心,萊德商業中心,22.2860385,114.1529229
中西區,萬利商業大廈 太平洋咖啡,太平洋咖啡,22.2861208,114.1491964
中西區,萬安商業大廈,順安商業大廈,22.284352,114.155289
中西區,萬年大廈 大快活,大快活,22.2819822,114.1562312
中西區,萬年大廈,萬年大廈,22.2820206,114.1561509
中西區,萬林閣,萬林閣,22.2855334,114.140057
中西區,萬興大廈,萬興大廈,22.2834275,114.1553846
中西區,萬邦行,萬邦行,22.2823835,114.1566154
中西區,蔚山花園,蔚山花園,22.275383,114.158256
中西區,蔚峰,蔚峰,22.285326,114.140565
中西區,蔚華閣,蔚華閣,22.2816538,114.147535
中西區,薄扶林道22-32號 鴻興茶餐廳,鴻興茶餐廳,22.285793,114.1400567
中西區,薄扶林道64-68號 URSUS Fitness,URSUS FITNESS,22.2849975,114.1376417
中西區,藝里坊．1號,藝里坊1號,22.2874048,114.1411605
中西區,蘇杭街106-108號,上環蘇杭街106號,22.2852961,114.1506792
中西區,蘇杭街88號 球哥燉湯,Souper Authentic,22.2849463,114.1510384
中西區,蘭桂坊酒店@九如坊,Lan Kwai Fong Hotel @ Kau U Fong,22.2842017,114.1530213
中西區,裕仁大廈A座,裕仁大廈,22.2765636,114.1306
中西區,西園,西園,22.2863681,114.141404
中西區,西寶城 Panash Bakery & Café,Panash bakery & Cafe,22.285595,114.132989
中西區,西寶城 海港酒家,海港酒家,22.2853336,114.133019
中西區,西寶城 麥當勞,麥當勞,22.2856032,114.1329466
中西區,西寶城,西寶城,22.2850744,114.1331441
中西區,西浦,西浦,22.2873751,114.1450207
中西區,西營盤社區綜合大樓,西營盤社區綜合大樓,22.2848726,114.1438425
中西區,西營盤街市,西營盤街市,22.285976,114.142421
中西區,西營盤郵政局大廈,西營盤郵政局,22.2860545,114.139865
中西區,西環邨中苑臺,西環邨中苑臺,22.2809938,114.1259366
中西區,觀龍樓F座,觀龍樓F座,22.2800661,114.1275391
中西區,誠信大廈 上環泉章居,泉章居,22.2869968,114.1519631
中西區,誠信大廈 泉章居,泉章居,22.2869968,114.1519631
中西區,誠信大廈,誠信大廈,22.2870108,114.1519348
中西區,誠利商場,誠利商塲,22.285012,114.153821
中西區,豐景閣,豐景閣,22.2867859,114.1424438
中西區,豐業大廈,豐業大廈,22.2870918,114.1368598
中西區,豐樂閣,豐樂閣,22.282461,114.1511347
中西區,豐盛創建大廈 星巴克咖啡,Starbucks,22.2825487,114.1561142
中西區,豐盛大廈 張三,張三 Cheung Sam Cuisine,22.2859152,114.1397086
中西區,豫苑1座,豫苑1座,22.2845793,114.1448063
中西區,賓士花園,賓士花園,22.281135,114.1492666
中西區,輝煌豪園,輝煌豪園,22.2804154,114.1508492
中西區,輝豪酒店,輝豪酒店,22.2828133,114.1279758
中西區,遠東發展大廈,遠東發展大廈,22.2851021,114.1555384
中西區,遠東金融中心 元気寿司,元氣壽司,22.279965,114.1640653
中西區,適安大廈,Sik On House,22.2851625,114.1356212
中西區,都爹利街1號,都爹利街一號,22.2802574,114.1572424
中西區,采文軒,采文軒,22.2844572,114.1408001
中西區,金寧大廈,金寧大廈,22.2845136,114.1429367
中西區,金寶閣,金寶閣,22.2832875,114.1304886
中西區,金德樓,金德樓,22.2852181,114.1520404
中西區,金日集團中心,金日集團中心,22.2874196,114.1482444
中西區,金鐘道政府合署,金鐘道政府合署,22.277879,114.1645172
中西區,金鐘道政府合署高座,法定語文事務部,22.278079,114.164353
中西區,金鳳閣,金鳳閣,22.2842454,114.1421471
中西區,錦園大廈B座,錦園大廈B座,22.2763835,114.1537357
中西區,錦甡大廈,錦甡大廈,22.2867527,114.152051
中西區,錦華大廈,錦華大廈,22.2868147,114.1372626
中西區,長庚大廈,長庚大廈,22.27997,114.1535267
中西區,長江集團中心,長江集團中心,22.2794517,114.1606395
中西區,陸海通大廈,陸海通大廈,22.2821589,114.1566345
中西區,隆基大廈,隆基大樓,22.2825323,114.1294667
中西區,隆基大樓,Lungga Mansion,22.2825323,114.1294667
中西區,雅蘭閣,雅蘭閣,22.2863207,114.1375009
中西區,雍慧閣,雍慧閣,22.2845945,114.1430446
中西區,雍景臺2座,雍景臺2座,22.2815178,114.1493697
中西區,雍景臺第二座,雍景臺,22.28148,114.149447
中西區,雲咸街33號,中環雲咸街33號,22.2804373,114.1551291
中西區,雲咸街43-55號 Chaiwala,余悅禮行,22.280928,114.1549201
中西區,雲咸街8號,8 Wyndham Street,22.2809883,114.1566154
中西區,順豪商業大廈 Ole Spanish Restaurant,Ole Spanish Restaurant,22.280307,114.156465
中西區,頤庭酒店,頤庭酒店(西營盤店),22.2877367,114.1443111
中西區,香港仔中心 百份百餐廳,百份百餐廳,22.2487359,114.1541334
中西區,香港商業中心,外藉英語教室,22.2870384,114.1359074
中西區,香港四季酒店,香港四季酒店,22.2862775,114.1571778
中西區,香港壁球中心,香港壁球中心,22.2775137,114.1600072
中西區,香港大學,香港大學,22.2829989,114.1370848
中西區,香港大學明華綜合大樓,香港大學明華綜合大樓,22.28234,114.139157
中西區,香港大學莊月明文娛中心 Café 330,Café 330（香港大學）,22.282661,114.1390496
中西區,香港大學黃克競樓 Union Restaurant (EAT),Union Restaurant (EAT),22.2831437,114.1365059
中西區,香港文華東方酒店,香港文華東方酒店,22.2818572,114.1593819
中西區,香港花園C-D座,香港花園C-D座,22.282422,114.148039
中西區,香港莎瑪荷李活服務式公寓,莎瑪荷李活,22.2825594,114.1529345
中西區,香港華大盛品酒店,華大盛品酒店,22.28728,114.139121
中西區,香港華美達海景酒店,華美達海景酒店,22.2869928,114.1435356
中西區,香港電訊CSL中心,香港電訊CSL中心,22.2867414,114.1503076
中西區,高士台1座,高士台,22.2847322,114.1394295
中西區,高士台一座,高士台,22.2847322,114.1394295
中西區,高士台第一座,高士台,22.2847322,114.1394295
中西區,高樂花園1座,高樂花園1座,22.2884395,114.1412646
中西區,高樂花園3座,高樂花園3座,22.2884171,114.1419613
中西區,高等法院大樓,立法會綜合大樓,22.280792,114.165578
中西區,高街21號,高街21號,22.2852666,114.1430354
中西區,高逸華軒,高逸華軒,22.283611,114.127306
中西區,高雅大廈,高雅大廈,22.2856685,114.1348002
中西區,高雲臺,高雲臺,22.2815718,114.1499967
中西區,鴨巴甸街14號,中環鴨巴甸街14號,22.2837204,114.152746
中西區,鴨都喇利大廈,鴨都喇利大廈,22.282072,114.155709
中西區,鴻德大廈,鴻德大廈,22.284858,114.15522
中西區,鴻豐商業中心,鴻豐商業中心,22.2826873,114.153166
中西區,麗澤園,麗澤園,22.2823323,114.1443302
中西區,麗豪閣A座,麗豪閣A座,22.2785978,114.151994
中西區,麗賢閣,麗賢閣,22.2850748,114.1410324
中西區,麥當勞道5號,半山麥當勞道5B號,22.275989,114.156396
中西區,龍記大廈 星月樓 (上環店),星月樓 上環店,22.2867437,114.15177
中西區,龍記大廈 星月樓,星月樓 上環店,22.2867437,114.15177
中西區,龍記大廈,龍記大廈,22.286851,114.1518419
九龍城,8度海逸酒店 8度餐廳,8度海逸酒店,22.3229344,114.1906691
九龍城,8度海逸酒店,8度海逸酒店,22.3229344,114.1906691
九龍城,AEON Style 泰拍耶,昭拍耶,22.3286009,114.1902627
九龍城,Downtown 38,Downtown 38,22.3209676,114.1884705
九龍城,Oasis Kai Tak 1座,Oasis Kai Tak,22.328752,114.1999138
九龍城,Oasis Kai Tak 5座,Oasis Kai Tak,22.328752,114.1999138
九龍城,One Victory Peko Peko Eatery,Peko Peko Eatery,22.3184686,114.1748441
九龍城,The Argyle 十字冰室,十字冰室,22.3200578,114.1741977
九龍城,世界殯儀館,世界殯儀館,22.3060418,114.1827824
九龍城,中南大廈,中南大廈,22.3231923,114.1883446
九龍城,中南大廈3座,中南大廈,22.3231923,114.1883446
九龍城,九龍仔業主會,九龍仔業主會 Kowloon Tsai Home Owners Association,22.3322556,114.1800083
九龍城,九龍仔游泳池,九龍仔游泳池,22.3331582,114.1845538
九龍城,九龍城市政大廈 樂園,樂園,22.3295551,114.1889872
九龍城,九龍城市政大廈,九龍城市政大廈,22.329435,114.189164
九龍城,九龍城廣場 大家樂,大家樂,22.3308072,114.1877153
九龍城,九龍城廣場 大快活,大快活,22.3310853,114.1880556
九龍城,九龍城廣場 馥苑海鮮酒家,馥苑海鮮酒家,22.3310202,114.1885246
九龍城,九龍城廣場,九龍城廣場,22.3309857,114.1879624
九龍城,九龍城法院大樓,九龍城裁判法院,22.3250713,114.1852541
九龍城,九龍城道151號,浩明雅苑,22.3208477,114.1899509
九龍城,九龍城道157-159號寶成洋樓,救世軍九龍城家庭支援中心,22.32122,114.190148
九龍城,九龍城道171號,馬頭角九龍城道171號,22.3213545,114.1902534
九龍城,九龍城道184號,馬頭角九龍城道184號,22.3216804,114.1906305
九龍城,九龍塘大廈,九龍塘大廈,22.326686,114.1765562
九龍城,九龍塘福園,馥苑海鮮酒家,22.3310202,114.1885246
九龍城,九龍真光中學,九龍真光中學(幼稚園部),22.3299811,114.1893838
九龍城,九龍維景酒店 棕櫚閣西餐廳,棕櫚閣西餐廳,22.3195531,114.1758437
九龍城,九龍維景酒店,香港九龍維景酒店,22.319472,114.175854
九龍城,九龍維景酒店地下,香港九龍維景酒店,22.319472,114.175854
九龍城,九龍總區總部及九龍塘消防局暨救護站,九龍塘消防局暨救護站,22.3346138,114.1826245
九龍城,九龍醫院Ｒ座,九龍醫院,22.3246172,114.1814018
九龍城,五豐樓,同豐樓,22.33008,114.191655
九龍城,亞皆老街108號,何文田亞皆老街108號,22.3200324,114.1745336
九龍城,仁儀苑,仁儀苑,22.319936,114.174726
九龍城,何文田廣場 Itamama,意樂,22.3162929,114.1818049
九龍城,何文田廣場 吉野家,何文田廣場,22.3162153,114.1817967
九龍城,何文田廣場 大快活,大快活,22.3161956,114.1819279
九龍城,何文田廣場 明星海鮮燒鵝專門店,明星海鮮燒鵝專門店,22.3162573,114.1816366
九龍城,何文田廣場,何文田廣場,22.3162153,114.1817967
九龍城,何文田政府合署,何文田政府合署,22.3146861,114.1802008
九龍城,何文田游泳池,何文田游泳池,22.3122613,114.1812246
九龍城,何文田邨恬文樓,恬文樓,22.3156101,114.1821353
九龍城,何文田邨景文樓,何文田邨景文樓,22.318436,114.180664
九龍城,何文田邨欣文樓,欣文樓,22.314914,114.181911
九龍城,何文田邨綺文樓,綺文樓,22.316301,114.182616
九龍城,何文田邨逸文樓,何文田邨,22.3166857,114.1824438
九龍城,何文田邨適文樓,何文田邨適文樓,22.31494,114.183085
九龍城,何文田邨采文樓,何文田邨,22.3166857,114.1824438
九龍城,何文田邨靜文樓,靜文樓,22.31499,114.182407
九龍城,余振強紀念中學,余振強紀念中學,22.318445,114.178596
九龍城,侯王道25號,侯王道29號,22.328538,114.188538
九龍城,侯王道25號B,侯王道25號,22.3284821,114.1887224
九龍城,侯王道39-43號,九龍城侯王道39-43號,22.3287928,114.1885693
九龍城,侯王道39-43號地下,號地下,22.3287928,114.1885693
九龍城,保良局林文燦英文小學,保良局林文燦英文小學,22.3186695,114.1882169
九龍城,信用街6號僑偉大廈,僑偉大廈,22.3109784,114.1850164
九龍城,偉恆昌新村 恆景閣,恆景閣I座,22.3178157,114.1929349
九龍城,偉恆昌新村恆景閣,恆景閣I座,22.3178157,114.1929349
九龍城,偉恆昌新村昌景閣 大家樂,大家樂,22.3181409,114.1915727
九龍城,偉恆昌新邨偉景閣,恆景閣I座,22.3178157,114.1929349
九龍城,偉恆昌新邨偉景閣J座,恆景閣I座,22.3178157,114.1929349
九龍城,偉恆昌新邨恆景閣,恆景閣I座,22.3178157,114.1929349
九龍城,偉恆昌新邨恆景閣B座,恆景閣I座,22.3178157,114.1929349
九龍城,偉恒昌新邨恒景閣B座,恆景閣I座,22.3178157,114.1929349
九龍城,偉景閣E座,曉光(土瓜灣)護老中心,22.3176992,114.1931206
九龍城,偉華園,偉華園,22.3264469,114.1811016
九龍城,傲雲峰5座,傲雲峰,22.3235682,114.1899693
九龍城,僑偉大廈,僑偉大廈,22.3109784,114.1850164
九龍城,僑園,僑園,22.3267769,114.1795532
九龍城,僑宏大廈1座,進源有限公司,22.32778,114.187369
九龍城,僑裕大廈,僑裕大樓停車場,22.31539,114.189744
九龍城,兆寶閣,兆寶閣,22.306701,114.186673
九龍城,公爵閣,公爵閣,22.326329,114.175995
九龍城,冠暉苑鳴暉閣,冠暉苑,22.3142177,114.1824132
九龍城,冠熹苑,冠熹苑,22.314472,114.1831818
九龍城,凱旋工商中心一期,凱旋工商中心一期,22.3095142,114.1885386
九龍城,凱旋工商中心二期,凱旋工商中心第二期,22.3093276,114.1889872
九龍城,加多利山,九龍城及油尖旺區策劃及統籌小組,22.321362,114.172627
九龍城,勝利道10A號,勝利道2-10A號,22.318715,114.1749381
九龍城,北帝街27A號,北帝街27A號,22.320834,114.1880352
九龍城,北帝街28號A 煌興火鍋菜館,煌興火鍋菜館,22.3206987,114.1882363
九龍城,北帝街67號,基健綜合醫療中心,22.321758,114.18859
九龍城,半島廣場,半島廣場Peninsula Square,22.3114561,114.1895999
九龍城,半島豪庭2座,半島豪庭,22.3044306,114.1847977
九龍城,協恩中學,協恩中學,22.321289,114.185643
九龍城,博文閣A座,恆勝樓,22.330315,114.188315
九龍城,又一城 温野菜,溫野菜,22.3374943,114.1738231
九龍城,又一居26座,又一居26座,22.333616,114.172782
九龍城,君柏1座,君柏,22.3242064,114.1856368
九龍城,唯一大廈,唯一大廈,22.3156637,114.1886157
九龍城,啓德道31-33號 Orange Elephant Thai Restaurant,Orange Elephant Thai Restaurant,22.3293655,114.1919732
九龍城,啟德1號(II)3座,啟德1號 (II),22.3290681,114.2004158
九龍城,啟德發展區的稅務大樓地盤,起動九龍東辦事處,22.3118096,114.2179099
九龍城,啟德郵輪碼頭 紙飛機親子餐廳,Origami Kids Cafe,22.3074324,114.2119943
九龍城,啟晴邨康晴樓,啟晴邨康晴樓,22.3318807,114.203245
九龍城,啟晴邨欣晴樓,啟晴邨欣晴樓,22.333014,114.203245
九龍城,啟晴邨滿晴樓,啟晴邨滿晴樓,22.3331021,114.2026877
九龍城,啟晴邨賞晴樓,啟晴邨賞晴樓,22.3335518,114.2031521
九龍城,啟朗苑 百份百餐廳,啟朗苑,22.3304798,114.1989104
九龍城,嘉匯2座,嘉匯 K.City,22.3285812,114.2012303
九龍城,嘉匯3座,嘉匯 K.City,22.3285812,114.2012303
九龍城,嘉匯第2座,嘉匯 K.City,22.3285812,114.2012303
九龍城,嘉景花園C座,嘉景花園停車場,22.320548,114.189113
九龍城,嘉皇臺,嘉皇臺,22.3420412,114.1835975
九龍城,嘉福閣 德昌魚蛋粉,德昌魚蛋粉,22.3304055,114.1877864
九龍城,土木工程拓展署大樓,土木工程拓展署大樓,22.3145106,114.1754956
九龍城,土瓜灣大廈 譚仔三哥米線,TamJai SamGor Mixian 譚仔三哥米線,22.3170905,114.1905826
九龍城,土瓜灣定安大廈,定安大廈H座,22.3176162,114.1899605
九龍城,土瓜灣市政大廈暨政府合署,土瓜灣市政大廈暨政府合署,22.3171467,114.1880584
九龍城,土瓜灣立基大廈,立基大廈,22.320793,114.189712
九龍城,土瓜灣街市,土瓜灣街市,22.3172238,114.1880992
九龍城,土瓜灣道100號,中華煤氣公司,22.32025,114.1927027
九龍城,土瓜灣道1號,土瓜灣道1-15號,22.314215,114.1879887
九龍城,土瓜灣道267號,香港家庭福利會（九龍城）長者中心,22.31937,114.189214
九龍城,土瓜灣道3號,九龍城區環境衛生辦事處,22.3173832,114.1879942
九龍城,土瓜灣道78A號 漢寶酒樓,漢寶酒樓,22.3167167,114.1898359
九龍城,土瓜灣道號唯一大廈,九龍城區環境衛生辦事處,22.3173832,114.1879942
九龍城,土瓜灣驗車中心,土瓜灣驗車中心,22.316884,114.192866
九龍城,城南道 創發潮州飯店,創發潮州飯店,22.329982,114.1910797
九龍城,城南道23號,九龍城城南道23號,22.3293285,114.1908195
九龍城,城南道44號 大德冰室,大德冰室,22.3295191,114.1908715
九龍城,城南道50-52號,億豐樓,22.3297082,114.1911933
九龍城,城南道65號後座,後座,22.3301867,114.1908559
九龍城,大利大廈 檀香山茶餐廳,聯發茶餐廳,22.3280666,114.188802
九龍城,大龍樓,大龍樓,22.316448,114.189482
九龍城,天富大廈地下 港口冰室,永香冰室,22.3189806,114.1885556
九龍城,天鑄 1 座,天鑄,22.3118621,114.1820435
九龍城,天鑄1座,天鑄,22.3118621,114.1820435
九龍城,天鑄1期7座,天鑄,22.3118621,114.1820435
九龍城,太子道西211號加多利山,Kadoorie Hill,22.3249598,114.1752864
九龍城,太子道西354號 湖南少奶,湖南少奶湘菜館,22.3275686,114.1872805
九龍城,太子道西388-390號,太子道西388號,22.3276231,114.1886902
九龍城,太子道西420號,太子道西420號,22.3279562,114.1899417
九龍城,太平花園,太平花園,22.317778,114.174248
九龍城,奕賢大廈,奕賢大廈,22.317595,114.191044
九龍城,奧斯酒店,奧斯酒店 O' Hotel,22.316882,114.188499
九龍城,安和園一期安寧大廈,安和大廈,22.3164859,114.1912758
九龍城,安寧大廈,安寧大廈,22.3168816,114.1916515
九龍城,安樂工廠大廈C座,安樂工廠大廈A座,22.3186906,114.1893936
九龍城,安泰大廈,安泰大廈,22.3170405,114.1913782
九龍城,宏豐大廈,華昌實業公司 - 紅磡,22.314869,114.188661
九龍城,定安大廈 萬豪漁港,萬豪漁港,22.317087,114.190124
九龍城,定安大廈,定安大廈H座,22.3176162,114.1899605
九龍城,定安大廈E座,定安大廈H座,22.3176162,114.1899605
九龍城,家維商場 麥當勞,麥當勞,22.3081379,114.1873856
九龍城,家維商場,家維商場,22.3082069,114.1846776
九龍城,家維邨 家義樓,日本城,22.3074156,114.1868956
九龍城,家維邨家廉樓 麥當勞,麥當勞,22.3081379,114.1873856
九龍城,家維邨家廉樓,紅磡家維邨,22.307798,114.187244
九龍城,家維邨家禮樓,九龍城母嬰健康院,22.3119519,114.1897434
九龍城,家維邨家禮樓1座,Ka Wai Chuen,22.3086372,114.1873633
九龍城,家維邨家義樓,日本城,22.3074156,114.1868956
九龍城,家維邨家興樓,家維邨家興樓,22.3082168,114.1846776
九龍城,家維邨家邦樓,家維邨5座家邦樓,22.3083416,114.1868984
九龍城,富怡閣,富怡閣,22.3142229,114.1868257
九龍城,富恒工業大廈,富恆工業大廈,22.3108764,114.1898578
九龍城,富業大廈,富業大廈,22.307657,114.186058
九龍城,富薈馬頭圍酒店,iclub Ma Tau Wai Hotel,22.316178,114.188748
九龍城,富豪東方酒店,富豪東方酒店,22.329917,114.1930472
九龍城,富輝大廈,富輝大樓,22.312173,114.187075
九龍城,富運大廈A座,富運大廈,22.311875,114.186211
九龍城,富高工業中心,富高工業中心 (A 座),22.3100387,114.1898184
九龍城,寰宇殯儀館,寰宇殯儀館,22.3062872,114.1800571
九龍城,寶光大廈後座,九龍城廣場,22.3309857,114.1879624
九龍城,寶城大樓,寶城大樓,22.3303411,114.1931206
九龍城,寶成洋樓,寶成洋樓,22.3211842,114.1901449
九龍城,寶暉大廈 On The Hill Coffee Bar,On The Hill Coffee Bar,22.3127336,114.1863357
九龍城,寶石戲院大廈 A座,閻珺之註冊中醫,22.306091,114.185759
九龍城,寶石戲院大廈 富臨漁港,富臨漁港,22.3062389,114.1858083
九龍城,寶石戲院大廈,民建聯九龍城支部紅磡辦事處,22.307166,114.184963
九龍城,寶石戲院大廈A座,紅磡必嘉街103-105號寶石戲院大廈,22.3062886,114.1852434
九龍城,寶馬閣,寶馬閣,22.316909,114.187393
九龍城,峰景軒,峰景軒,22.318957,114.176309
九龍城,崇富洋樓 源都冰室,源都冰室,22.312117,114.185594
九龍城,崇廉樓,崇廉樓,22.311372,114.189108
九龍城,崇愛樓,崇愛樓,22.311425,114.188733
九龍城,崇潔街20號 貴緣小鍋米線,貴緣小鍋米線,22.3118267,114.1886172
九龍城,嶺南大廈,嶺南大廈,22.3168848,114.1893699
九龍城,工人俱樂部 香港地,工人俱樂部,22.3225543,114.1879771
九龍城,工業貿易大樓,工業貿易大樓,22.3325978,114.1978205
九龍城,巴富花園宜富閣,怡富閣,22.3210373,114.1791118
九龍城,巴富花園豪富閣,巴富花園豪富閣,22.32119,114.179509
九龍城,巴豪苑,Kowloon City Ferry Pier Bus Terminus,22.318418,114.193633
九龍城,帝庭園第五座,帝庭園,22.310616,114.175267
九龍城,帝庭豪園2座,帝庭豪園,22.3213371,114.1870148
九龍城,帝庭豪園3座,帝庭豪園,22.3213371,114.1870148
九龍城,帝庭軒購物商場 海港酒家,帝庭軒購物商場,22.5003493,114.1437134
九龍城,常康園,常康園,22.3201158,114.1836542
九龍城,常樂邨常樂樓,常樂邨,22.3200147,114.1813473
九龍城,年豐樓 李錦基越南餐廳,李錦基越南餐廳,22.3177837,114.1746938
九龍城,康富大廈,九龍城道,22.318642,114.188805
九龍城,康強大廈,康強大樓,22.334605,114.197196
九龍城,建新中心停車場,建新中心,22.339325,114.180744
九龍城,建業中心,APB Centre,22.3116207,114.1908665
九龍城,律倫街,律倫街兒童遊樂場,22.3336539,114.1779337
九龍城,律倫街2號,九龍塘律倫街2號律倫街2號,22.3331498,114.1779276
九龍城,御‧豪門,御豪門,22.3307466,114.1923742
九龍城,御門．前,御門 • 前,22.3300157,114.1895213
九龍城,御．豪門,御豪門,22.3307466,114.1923742
九龍城,德利閣,錦利閣,22.329106,114.18721
九龍城,德勝大廈,德昌魚蛋粉,22.3304055,114.1877864
九龍城,德威大廈2期,德威大廈,22.3192642,114.1781475
九龍城,德朗邨德珊樓,德朗邨德珊樓,22.32985,114.2042924
九龍城,德朗邨德琦樓,德朗邨德琦樓,22.3294094,114.203988
九龍城,德朗邨德瑜樓,德朗邨德瑜樓,22.330617,114.2029663
九龍城,德朗邨德瑞樓,德朗邨德瑞樓,22.3288432,114.2037094
九龍城,德朗邨德瑩樓,德朗邨德瑩樓,22.3297452,114.2029663
九龍城,德朗邨德璋樓,德朗邨德璋樓,22.3293706,114.2032682
九龍城,德民街34號地下,號地下,22.306259,114.187547
九龍城,德萃幼稚園,德萃幼稚園,22.3074197,114.1850253
九龍城,德裕閣 甜麥麥麵包西餅,甜麥麥麵包西餅,22.3069137,114.1871963
九龍城,德豐樓,德豐樓,22.3299323,114.1919828
九龍城,怡安閣 呆吉甜屋,怡安閣,22.3205032,114.1767273
九龍城,怡安閣,怡安閣,22.3205032,114.1767273
九龍城,怡景大廈,怡景大廈,22.3183093,114.1748512
九龍城,愛民廣場 地道館車仔麵,地道館車仔麵,22.3350724,114.1955562
九龍城,愛民廣場 大快活,大快活,22.3310853,114.1880556
九龍城,愛民廣場 百份百餐廳,Café 100%,22.3123083,114.1763018
九龍城,愛民廣場 肯德基,肯德基,22.3307534,114.1884994
九龍城,愛民廣場,愛民廣場,22.311888,114.1768029
九龍城,愛民街市,愛民街市,22.3131634,114.1785755
九龍城,愛民邨保民樓,愛民邨保民樓,22.3117046,114.1797828
九龍城,愛民邨信民樓,愛民邨,22.3124067,114.1788626
九龍城,愛民邨嘉民樓,九龍城區青少年外展社會工作隊,22.312223,114.179887
九龍城,愛民邨建民樓,愛民邨,22.3124067,114.1788626
九龍城,愛民邨新民樓,九龍城區青少年外展社會工作隊,22.312223,114.179887
九龍城,愛民邨衛民樓,愛民邨,22.3124067,114.1788626
九龍城,愛民邨頌民樓,愛民邨頌民樓,22.3130679,114.1757253
九龍城,愛華大廈,中銀九龍城大樓,22.32875,114.189709
九龍城,成龍居,成龍居,22.3283762,114.1877565
九龍城,房屋委員會總部1座,房屋委員會總部,22.315401,114.181071
九龍城,房屋委員會總部第3座,房委會職員同樂會餐廳,22.3154709,114.181893
九龍城,房屋委員會總部第一座,房屋委員會總部,22.315401,114.181071
九龍城,播道醫院,播道醫院,22.3251652,114.1869162
九龍城,教育局九龍塘教育服務中心,九龍塘教育服務中心,22.3366479,114.177711
九龍城,文福道11號瓊苑,瓊苑,22.3200486,114.1775389
九龍城,文裕閣,中銀九龍城大樓,22.32875,114.189709
九龍城,新城中心,新成中心,22.279525,114.224628
九龍城,新城中心4座,土瓜灣炮仗街100號新城中心4座,22.3203683,114.1873094
九龍城,新德園,Sunderland Estate,22.3347764,114.1806966
九龍城,新泰大樓,新泰大樓,22.3280556,114.1872222
九龍城,旺德大廈,朋德大廈,22.329672,114.190853
九龍城,昇御商場,昇御商場,22.311211,114.186285
九龍城,昇御門,昇御門2座,22.31097,114.186347
九龍城,昌盛金舖大樓,昌盛大樓,22.330387,114.189456
九龍城,昌華工廠大廈,昌華工廠大廈,22.3181047,114.190499
九龍城,明安街17號 生發魚蛋粉,生發魚蛋粉,22.3064725,114.1856308
九龍城,明發大廈,聯業大廈,22.316003,114.188024
九龍城,映月臺B座,映月臺,22.3427631,114.1780769
九龍城,春田街福運大廈,中銀九龍城大樓,22.32875,114.189709
九龍城,春苑,春苑,22.3265562,114.1840188
九龍城,昭民樓 愛民茶餐廳,昭民樓 愛民茶餐廳,22.3129693,114.1761258
九龍城,晨樂大廈,Kowloon City Road Public Toilet,22.3165294,114.1878262
九龍城,晴朗商場 A區,晴朗商場（A區）,22.3315397,114.2029199
九龍城,晴朗商場 太子美食,晴朗商場 太子美食,22.3313787,114.201148
九龍城,晴朗商場 寶峰餐廳,寶峰餐廳,22.331878,114.202669
九龍城,晴朗商場 金鳳大餐廳,金鳳大餐廳,22.3310505,114.2028721
九龍城,晴朗商場 麥當勞,麥當勞,22.3310021,114.2024745
九龍城,晴朗商場,晴朗商場,22.3312554,114.2012721
九龍城,晶苑,晶苑集團,22.3133207,114.2203806
九龍城,木廠街,福隆（香港）有限公司（九龍城道輔路）,22.3223994,114.1908284
九龍城,木廠街1B號,木廠街1號,22.3233899,114.1892427
九龍城,木廠街1號,木廠街1號,22.3233899,114.1892427
九龍城,木廠街1號C,木廠街1號,22.3233899,114.1892427
九龍城,東寶大廈,東寶大廈,22.3202637,114.1702018
九龍城,東禧閣 越北牛肉粉專門店,越北牛肉粉專門店,22.3068394,114.1859125
九龍城,東興大廈,九龍城市政大廈,22.329435,114.189164
九龍城,東興大樓 中泰味美,中泰味美เกตุทองคำ,22.3162257,114.1902433
九龍城,東興大樓 金苑粉麵,黃明記粥粉麺,22.3303711,114.1922896
九龍城,東興大樓,東興大樓,22.3162803,114.1900227
九龍城,東華三院黃笏南中學,東華三院黃笏南中學,22.3291601,114.1804417
九龍城,東貿商業大廈,東貿商業大廈,22.3118614,114.1857664
九龍城,東頭(二)邨興東樓,東頭(二)邨興東樓,22.333703,114.194145
九龍城,東頭(二)邨貴東樓,東頭(二)邨振東樓,22.3357976,114.1927947
九龍城,東頭邨安東樓 彩翠軒海鮮酒家,彩翠軒酒家,22.3324922,114.1927491
九龍城,東頭邨旺東樓,東頭邨旺東樓,22.3339166,114.1925633
九龍城,東頭（二）邨貴東樓,東頭(二)邨振東樓,22.3357976,114.1927947
九龍城,根德閣5座,根德閣,22.3273959,114.1805481
九龍城,梭椏園,梭椏園,22.31968,114.174782
九龍城,森麻實道2號,中原地產九龍塘森麻實道分行 Centaline Property Kowloon Tong Somerset Road Branch,22.3376832,114.1788482
九龍城,榮林大廈,榮林大廈,22.312864,114.186131
九龍城,樂嘉大廈,樂嘉大廈,22.3079324,114.1825964
九龍城,樂民新村G座,樂民新村G座樂善樓,22.317271,114.1860697
九龍城,樂民新村樂善樓,樂民新村G座樂善樓,22.317271,114.1860697
九龍城,樂民新村樂基樓,樂民新村,22.317201,114.185904
九龍城,樂民新村樂豐樓,樂民新村樂群樓,22.3167431,114.1859015
九龍城,樂民新村樂鄰樓,樂民新村樂愛樓,22.314631,114.1866737
九龍城,樂民新邨樂基樓,樂民新村,22.317201,114.185904
九龍城,樂民新邨樂智樓,樂智樓,22.3152295,114.1865206
九龍城,樂民新邨樂豐樓,樂民新村樂群樓,22.3167431,114.1859015
九龍城,欣榮花園 富臨皇宮(欣榮店),富臨皇宮,22.321952,114.189374
九龍城,民泰街43號 金坊泰國美食,Golden Thai Food,22.3065571,114.1884633
九龍城,民泰街7號 印尼沙爹屋,印尼沙爹屋,22.3063011,114.187725
九龍城,民生商業大廈,民生商業大廈,22.3275306,114.187176
九龍城,民生書院,民生書院,22.332712,114.186126
九龍城,民裕街12號,紅磡民裕街12號,22.3084938,114.18843
九龍城,永和大廈,九龍城市政大廈,22.329435,114.189164
九龍城,永安臺,Countryside Pets Shop (Kowloon City),22.3302585,114.1883153
九龍城,永德大廈,永德大廈,22.3219857,114.1886702
九龍城,沙浦道45號,九龍城沙浦道45號,22.329597,114.192525
九龍城,沙浦道67號,九龍城沙浦道67號,22.3301392,114.1926489
九龍城,沙浦道73號,九龍城沙浦道73號,22.330235,114.192564
九龍城,泰豐商場,泰豐商場,22.3299989,114.1882725
九龍城,浩明雅苑,浩明雅苑停車場,22.320832,114.189934
九龍城,海名軒2座,九龍城民政事務處 - 諮詢服務中心 WiFi熱點,22.302272,114.191655
九龍城,海悅廣場 囍宴,囍宴,22.3217443,114.187861
九龍城,海濱南岸 & Green Café,& Green Cafe,22.3038135,114.186195
九龍城,海濱南岸,海濱南岸,22.3033333,114.1863889
九龍城,海濱南岸5座,海濱南岸,22.3033333,114.1863889
九龍城,海濱南岸6座,海濱南岸,22.3033333,114.1863889
九龍城,海濱廣場1座,海濱廣場一座,22.302351,114.1916545
九龍城,海濱廣場2座,海濱廣場二座,22.3030525,114.19194
九龍城,海濱廣場一座,九龍城區兒童合唱團,22.302271,114.191669
九龍城,海灣軒海景酒店,海韻軒,22.3024523,114.1847609
九龍城,海逸豪園12A座,海逸豪園悅濤灣12A座,22.308971,114.192679
九龍城,海逸豪園16座,海逸豪園16座,22.3079302,114.1935618
九龍城,海逸豪園19座,海逸豪園19座,22.3073059,114.1930974
九龍城,海逸豪園1座,海逸豪園,22.3075221,114.1926942
九龍城,海逸豪園20座,海逸豪園,22.3075221,114.1926942
九龍城,海逸豪園23座,海逸豪園,22.3075221,114.1926942
九龍城,海逸豪園2座,海逸豪園,22.3075221,114.1926942
九龍城,海逸豪園3期12A座,海逸豪園悅濤灣12A座,22.308971,114.192679
九龍城,海逸豪園3期悅濤灣8座,海逸豪園悅濤灣12A座,22.308971,114.192679
九龍城,海逸豪園8座,海逸豪園,22.3075221,114.1926942
九龍城,渭州道,渭州道4號,22.333079,114.180015
九龍城,港圖灣,港圖灣,22.3158664,114.1914062
九龍城,港景苑,港景苑,22.319476,114.1890207
九龍城,源成大廈,源成大厦,22.306606,114.183847
九龍城,源成大廈地下,源成大厦,22.306606,114.183847
九龍城,溫思勞街19號,紅磡溫思勞街19號,22.307211,114.182449
九龍城,潮樓 翠河餐廳,翠河餐廳,22.3172363,114.190771
九龍城,潮樓,京潮樓,22.3228221,114.1890198
九龍城,煥然壹居H2座,煥然壹居,22.330888,114.2017341
九龍城,燕安街22-24號,馬頭角燕安街22號,22.3212,114.193195
九龍城,獅子石道17號,九龍城獅子石道17號,22.3282026,114.188033
九龍城,獅子石道19-21號 地茂館燒味粥麵餐廳,地茂館燒味粥麵餐廳,22.3281647,114.188012
九龍城,獅子石道1號地下,號地下,22.3278673,114.1879423
九龍城,獅子石道27號 西貢越南真味,西貢越南真味 九龍城分店,22.3284821,114.188016
九龍城,獅子石道45-47號,九龍城獅子石道45號,22.3289883,114.1881194
九龍城,環海．東岸1A座,環海東岸,22.3129244,114.1894282
九龍城,環海．東岸1C座,環海東岸,22.3129244,114.1894282
九龍城,瓊林別墅A座,瓊林別墅,22.3196152,114.1780717
九龍城,瓊林別墅Ａ座,瓊林別墅,22.3196152,114.1780717
九龍城,畢架山一號2座,One Beacon Hill,22.3408868,114.174717
九龍城,皆富閣,九龍城感化辦事處 (1),22.325209,114.185274
九龍城,皇帝大廈,皇帝大廈,22.3259623,114.1812428
九龍城,皓畋7座,皓畋,22.3193908,114.1812438
九龍城,皓畋9座,皓畋,22.3193908,114.1812438
九龍城,益民大廈,九龍城道公廁,22.3165294,114.1878262
九龍城,益發大廈 永利餐廳,聯發茶餐廳,22.3280666,114.188802
九龍城,益豐大廈B座,百利裕泰裝飾公司,22.315542,114.18924
九龍城,真善美村至真樓,真善美村,22.3251541,114.187594
九龍城,督察級警察宿舍C座,督察級警察宿舍C座,22.314,114.176136
九龍城,碧華花園3座,碧華花園,22.32743,114.183488
九龍城,碧華花園5座,碧華花園,22.32743,114.183488
九龍城,祥祺中心B座,祥祺中心,22.3008731,114.187764
九龍城,祥祺中心Ａ座,祥祺中心,22.300878,114.1855753
九龍城,福佬村道5-9號 雄．聚一堂,雄聚一堂,22.327778,114.1873771
九龍城,福園,馥苑海鮮酒家,22.3310202,114.1885246
九龍城,福安大廈,福安大廈B座,22.3240367,114.1887833
九龍城,福家大廈 東門冰室,東門冰室,22.307239,114.1840276
九龍城,福裕樓,福裕樓,22.3152965,114.1873223
九龍城,福運大廈,中銀九龍城大樓,22.32875,114.189709
九龍城,窩打老道75號,何文田窩打老道75號,22.3195531,114.1758437
九龍城,立基大廈,立基大廈,22.320793,114.189712
九龍城,紅磡安泰大廈,民建聯九龍城支部紅磡辦事處,22.307166,114.184963
九龍城,紅磡崇愛樓,崇愛樓,22.311425,114.188733
九龍城,紅磡市政大廈,紅磡市政大廈體育館,22.3074403,114.1872381
九龍城,紅磡廣場,紅磡廣場,22.3102593,114.1855939
九龍城,紅磡海濱廣場2座,海濱廣場二座,22.3030525,114.19194
九龍城,紅磡海濱廣場二座,海濱廣場二座,22.3030525,114.19194
九龍城,紅磡海逸豪園20座,海逸豪園,22.3075221,114.1926942
九龍城,紅磡源成大廈,源成大厦,22.306606,114.183847
九龍城,紅磡灣中心 路斯餐廳,豪宴海鮮酒家,22.3056351,114.1848715
九龍城,紅磡灣中心,紅磡灣中心,22.305197,114.185924
九龍城,紅磡灣中心鴻康閣,紅磡灣中心,22.305197,114.185924
九龍城,紅磡花園1座,紅磡花園,22.309703,114.186749
九龍城,紅磡邨紅日樓,紅磡邨,22.3086271,114.189725
九龍城,紅磡邨紅昕樓,紅磡邨紅昕樓,22.308304,114.189386
九龍城,紅磡邨紅暉樓,紅暉樓,22.3076995,114.1888322
九龍城,紅磡邨紅曜樓,紅磡邨,22.3086271,114.189725
九龍城,紅茶館酒店,紅茶館酒店 - 九龍城,22.3241452,114.1894284
九龍城,紫翠園,杏香園甜品,22.3289902,114.1900882
九龍城,維港‧星岸2座,維港．星岸 Stars By The Harbour,22.3019309,114.1876872
九龍城,維港中心2座,土瓜灣鶴翔街8號維港中心2座,22.3101379,114.191588
九龍城,繽紛購物城,繽紛購物城,22.3070275,114.1876008
九龍城,美光街安寧大廈,安寧大廈,22.3168816,114.1916515
九龍城,美利大廈,美利大廈,22.317843,114.189889
九龍城,美善同道61號,土瓜灣美善同道61號,22.3177253,114.1870942
九龍城,美善同道99號,美善同道99-117號,22.3168827,114.1871063
九龍城,美善大廈 聯發餐廳小廚,聯發茶餐廳,22.3280666,114.188802
九龍城,美寧臺,美寧台,22.3198096,114.1800539
九龍城,美景樓1期,美景樓一期,22.3161111,114.1908333
九龍城,美景街 61號 海南廚房,海南廚房,22.3171609,114.1911402
九龍城,美景街108號,美景街21號,22.316474,114.190469
九龍城,美景街2號美景樓一期,美景樓一期,22.3161111,114.1908333
九龍城,美東邨美仁樓,美東邨美仁樓,22.333066,114.187716
九龍城,美東邨美德樓,美東邨美德樓,22.3340724,114.190212
九龍城,美華工業中心A座,"美華工業中心A,B座. 土瓜灣道94號",22.3190858,114.191447
九龍城,義達工業大廈,義達工業大廈,22.3084032,114.1879018
九龍城,翔龍灣1座,翔龍灣,22.3191879,114.1934938
九龍城,翔龍灣3座,翔龍灣,22.3191879,114.1934938
九龍城,翔龍灣5座,翔龍灣,22.3191879,114.1934938
九龍城,翔龍灣廣場 喜盈樓,翔龍灣,22.3191879,114.1934938
九龍城,翔龍灣廣場 太興,太興,22.3193699,114.1929154
九龍城,翔龍灣廣場,翔龍灣,22.3191879,114.1934938
九龍城,聖德肋撒醫院,聖德肋撒醫院,22.3262591,114.184829
九龍城,聚寶坊 鮨文,鮨文,22.3057159,114.1891359
九龍城,聯成大廈 麵.睦月,麵.睦月 Mutsuki,22.305757,114.1861194
九龍城,聯成大廈,聯盛大廈,22.305983,114.186516
九龍城,聯成大廈地下 永明粥店,永明粥店,22.3062279,114.1865269
九龍城,聯發大廈,聯發大廈 Luen Fat Mansion,22.3182701,114.1900554
九龍城,聯盛大廈龍圖閣,聯盛大廈龍圖閣,22.3061514,114.1865535
九龍城,興仁街1號,興仁街1-31號,22.3194552,114.1946997
九龍城,興華大廈,興華大廈,22.3081392,114.1841748
九龍城,芝蘭苑,芝蘭苑,22.326843,114.188565
九龍城,華景大廈,九龍城派遞局,22.318097,114.190935
九龍城,華發大廈,華發大廈,22.31588,114.171094
九龍城,萬國殯儀館,萬國殯儀館,22.305997,114.182491
九龍城,落山道70號,顏清坡醫生,22.3166699,114.1892375
九龍城,落山道76號,大龍樓,22.316448,114.189482
九龍城,蔚景樓G座,蔚景樓,22.3095796,114.181402
九龍城,蕪湖街34號,紅磡蕪湖街34號蕪湖街34號,22.3070402,114.1865606
九龍城,蕪湖街34號地下,民建聯九龍城支部紅磡辦事處,22.307166,114.184963
九龍城,蕪湖街78號 平記咖啡冰室,平記咖啡冰室,22.3078166,114.1852494
九龍城,蟬聯街6號,馬頭角蟬聯街6號,22.320928,114.192748
九龍城,衙前圍道122號,九龍城衙前圍道122號,22.3290752,114.1883313
九龍城,衙前圍道60-62號金輝樓,金輝樓,22.3290624,114.1905895
九龍城,衙前塱道10號,衙前塱道10號,22.3282866,114.1894284
九龍城,衙前塱道28號 昌記新城茶餐廳,昌記新城茶餐廳,22.3286408,114.1894633
九龍城,衛安中心,衛安有限公司,22.3107062,114.190522
九龍城,衞生防護中心,衛生防護中心,22.3255769,114.1830513
九龍城,裕新大廈,裕新大廈,22.3085012,114.1837465
九龍城,裕聯大廈,裕聯大廈,22.3277231,114.1871992
九龍城,西九龍總區警察總部,西九龍總區警察總部,22.3236149,114.1833397
九龍城,譚公道34E號 品甜咖啡店,品甜咖啡店,22.321794,114.1882005
九龍城,豪華之家,豪華之家,22.326977,114.186094
九龍城,賈炳達道 61號,九龍城賈炳達道61號,22.3301932,114.1907652
九龍城,賈炳達道61號,九龍城賈炳達道61號,22.3301932,114.1907652
九龍城,逸．酒店,8度海逸酒店,22.3229344,114.1906691
九龍城,都會海逸酒店 千鶴日本料理,千鶴日本料理,22.3016109,114.1833115
九龍城,都會軒1座,都會軒第一座,22.302634,114.183584
九龍城,金巴倫道,九龍城,22.3306602,114.1920172
九龍城,金百利大廈,金百利大廈,22.3154637,114.1765795
九龍城,金都豪苑 麵麵棧,馬頭涌北帝街58號金都豪苑,22.322352,114.1871701
九龍城,銀竹苑7座,黃埔花園十二期銀竹苑2座,22.306041,114.191194
九龍城,錦堂樓,錦堂樓,22.3230314,114.1895216
九龍城,錦安軒,Little Hero Education Centre,22.328982,114.187982
九龍城,鑽石樓,鑽石樓,22.3196222,114.1679225
九龍城,長樂大廈,長樂大廈,22.307654,114.183182
九龍城,隆基大樓,鶴園馬頭圍道23-35H號隆基大樓,22.3091546,114.1878726
九龍城,隆基大樓A座,鶴園馬頭圍道23-35H號隆基大樓,22.3091546,114.1878726
九龍城,隆基大樓B座,恆勝樓,22.330315,114.188315
九龍城,隆基大樓D座,恆勝樓,22.330315,114.188315
九龍城,隆基大樓Ａ座,鶴園馬頭圍道23-35H號隆基大樓,22.3091546,114.1878726
九龍城,雅士花園3座,雅士花園,22.3239849,114.1844372
九龍城,雅麗居2座,雅麗居,22.323282,114.1825015
九龍城,露明道4號,露明道4-6號,22.3257706,114.1857595
九龍城,靠背壟道155號,土瓜灣靠背壟道155號,22.3170567,114.186566
九龍城,首利大廈,首利大廈,22.3107971,114.1847841
九龍城,香港九龍維景酒店,香港九龍維景酒店,22.319472,114.175854
九龍城,香港公開大學正校園,香港公開大學,22.3163552,114.1801817
九龍城,香港嘉里酒店 Bong– 意大利餐廳,香港嘉里酒店,22.3012921,114.1888343
九龍城,香港嘉里酒店,香港嘉里酒店,22.3012046,114.1880278
九龍城,香港房屋委員會總部,房屋委員會總部,22.315401,114.181071
九龍城,香港浸信會醫院,九龍城浸信會,22.3246092,114.1858384
九龍城,香港浸會大學,香港浸會大學逸夫校園,22.337784,114.181564
九龍城,香港電台廣播大廈,香港電台廣播大廈,22.3418021,114.180999
九龍城,香港電台電視大廈,香港電台電視大廈,22.340344,114.181654
九龍城,香港飛行總會餐廳,香港飛行總會,22.3243431,114.1905643
九龍城,香港體育館,九龍城體育館,22.329504,114.1890335
九龍城,馬頭圍道127A號 珍寶豆漿餃子,珍寶豆漿餃子 Jumbo,22.313914,114.187796
九龍城,馬頭圍邨夜合樓,馬頭圍邨,22.3231106,114.1869507
九龍城,馬頭圍邨玫瑰樓,馬頭圍邨,22.3231106,114.1869507
九龍城,馬頭圍邨芙蓉樓,民社服務中心「九龍城食物回收助人計劃」聯絡處,22.3235842,114.1866106
九龍城,馬頭涌道42-50號 香港地,香港工會聯合會,22.3225161,114.1880119
九龍城,馬頭涌道68-74號中南大廈,馬頭涌馬頭涌道68號,22.323131,114.1882971
九龍城,馬頭涌道90-93號 龍寶酒家,龍寶酒家,22.3239274,114.1887265
九龍城,馬頭角羈留中心,翔龍灣,22.3191879,114.1934938
九龍城,馬頭角道33號地下,日本城,22.321975,114.188902
九龍城,馬頭角道63號,牛棚藝術村,22.3208434,114.1915799
九龍城,馬頭角道7號,HKTVmall O2O Shop (土瓜灣馬頭角道),22.3223471,114.1893588
九龍城,鴻英大廈,鴻英大廈,22.3167204,114.1884454
九龍城,鴻運街18號,鴻運街18號,22.321307,114.192699
九龍城,鴻運街3號,馬頭角鴻運街3號,22.321042,114.192348
九龍城,鶴齡街3號 百味佳快餐廳,百味佳快餐廳,22.3205813,114.1932993
九龍城,麟祥街23號,馬頭角麟祥街23號,22.321828,114.191893
九龍城,黃埔108商場,黃埔108商場,22.3066829,114.1877386
九龍城,黃埔天地 博藝會,ClubONE 博藝會,22.304951,114.190859
九龍城,黃埔天地 奇妙坊(第一期),黃埔天地奇妙坊,22.3050839,114.1877207
九龍城,黃埔天地 金萬年酒家,金萬年酒家,22.3061872,114.190761
九龍城,黃埔天地,黃埔天地,22.3056178,114.1898614
九龍城,黃埔天地享膳坊 4期 麥奀雲吞麵世家,紅磡享膳坊,22.3039349,114.18876
九龍城,黃埔天地享膳坊4期 Amber’s Table,Amber's Table,22.3038779,114.1887376
九龍城,黃埔天地奇妙坊(1期),黃埔天地奇妙坊,22.3050839,114.1877207
九龍城,黃埔天地家居庭,黃埔天地家居庭,22.3058908,114.1911022
九龍城,黃埔天地時尚坊,周生生黃埔天地時尚坊店,22.3050372,114.1893617
九龍城,黃埔天地百合苑商場 大家樂,黃埔新天地百合苑商場,22.302455,114.190402
九龍城,黃埔天地百合苑商場 譚仔三哥米線,譚仔三哥米線,22.3029985,114.1901642
九龍城,黃埔天地百合苑商場第9期,黃埔新天地百合苑商場,22.302455,114.190402
九龍城,黃埔天地百寶坊3期 康和閣酒家,康和閣 Hong Wo Kok Restaurant,22.3045513,114.186985
九龍城,黃埔天地美食坊 太興,太興,22.304823,114.190765
九龍城,黃埔天地螢幕圈8期 會所1號博藝會,ClubONE Spotlight,22.304951,114.190859
九龍城,黃埔天地螢幕圈第8期 會所1號博藝會,ClubONE Spotlight,22.304951,114.190859
九龍城,黃埔天地金萬年酒家,金萬年酒家,22.3061872,114.190761
九龍城,黃埔新天地百寶坊 翠河餐廳,翠河餐廳,22.3048111,114.1864008
九龍城,黃埔新天地百寶坊,黃埔新天地百寶坊,22.304412,114.187148
九龍城,黃埔新天地第5及6期,黃埔花園,22.3047355,114.1902873
九龍城,黃埔新邨景榮樓,黃埔新邨永華樓,22.306497,114.188175
九龍城,黃埔新邨樂富樓地下,王錫偉醫生,22.305946,114.187709
九龍城,黃埔新邨樂貴樓,九龍城,22.3306602,114.1920172
九龍城,黃埔新邨永榮樓,黃埔新邨永華樓,22.306497,114.188175
九龍城,黃埔花園 4 期棕櫚苑1 座,黃埔花園,22.3047355,114.1902873
九龍城,黃埔花園 4 期棕櫚苑1座,黃埔花園,22.3047355,114.1902873
九龍城,黃埔花園 肯德基,肯德基,22.3055811,114.1903981
九龍城,黃埔花園 肯德基家鄉雞,肯德基,22.3055811,114.1903981
九龍城,黃埔花園 麥當勞,麥當勞,22.3049262,114.1878546
九龍城,黃埔花園10期2座,"WiFi Hotspot, Kowloon City District Office - Public Enquiry Service Centre",22.302272,114.191655
九龍城,黃埔花園12期銀竹苑7座,黃埔花園十二期銀竹苑2座,22.306041,114.191194
九龍城,黃埔花園2期17座地下,中原地產九龍昇御門分行 Centaline Property Chatham Gate Branch,22.3041928,114.187568
九龍城,黃埔花園2期錦桃苑11座,黃埔花園二期錦桃苑4座,22.304772,114.189582
九龍城,黃埔花園2期錦桃苑14座,黃埔花園二期錦桃苑4座,22.304772,114.189582
九龍城,黃埔花園3期翠楊苑1座,中原地產九龍昇御門分行 Centaline Property Chatham Gate Branch,22.3041928,114.187568
九龍城,黃埔花園3期翠楊苑4座,中原地產九龍昇御門分行 Centaline Property Chatham Gate Branch,22.3041928,114.187568
九龍城,黃埔花園3期翠楊苑5座,中原地產九龍昇御門分行 Centaline Property Chatham Gate Branch,22.3041928,114.187568
九龍城,黃埔花園4 期棕櫚苑4 座,黃埔花園,22.3047355,114.1902873
九龍城,黃埔花園4 期棕櫚苑4座,黃埔花園,22.3047355,114.1902873
九龍城,黃埔花園4期4座,九龍城民政事務處 - 諮詢服務中心 WiFi熱點,22.302272,114.191655
九龍城,黃埔花園4期6座,黃埔花園,22.3047355,114.1902873
九龍城,黃埔花園4期棕櫚苑1座,黃埔花園,22.3047355,114.1902873
九龍城,黃埔花園4期棕櫚苑2座,黃埔花園,22.3047355,114.1902873
九龍城,黃埔花園4期棕櫚苑4 座,黃埔花園,22.3047355,114.1902873
九龍城,黃埔花園4期棕櫚苑4座,黃埔花園,22.3047355,114.1902873
九龍城,黃埔花園4期棕櫚苑5座,黃埔花園,22.3047355,114.1902873
九龍城,黃埔花園4期棕櫚苑6座,黃埔花園棕櫚苑,22.303809,114.188853
九龍城,黃埔花園5期青樺苑3座,黃埔花園五期青樺苑7座,22.303463,114.190582
九龍城,黃埔花園5期青樺苑8座,黃埔花園五期青樺苑7座,22.303463,114.190582
九龍城,黃埔花園9期百合苑2座,黃埔花園百合苑,22.303305,114.189651
九龍城,黃埔花園9期百合苑8座,黃埔花園百合苑,22.303305,114.189651
九龍城,黃埔花園二期17座,黃埔花園二期錦桃苑,22.3040823,114.1888033
九龍城,黃埔花園棕櫚苑 4 期 1座,黃埔花園四期棕櫚苑1座,22.3041987,114.1881771
九龍城,黃埔花園棕櫚苑 6座,黃埔花園棕櫚苑,22.303809,114.188853
九龍城,黃埔花園棕櫚苑1座,黃埔花園四期棕櫚苑1座,22.3041987,114.1881771
九龍城,黃埔花園棕櫚苑4座,黃埔花園棕櫚苑,22.303809,114.188853
九龍城,黃埔花園棕櫚苑4期2座,黃埔花園棕櫚苑,22.303809,114.188853
九龍城,黃埔花園棕櫚苑4期6座,黃埔花園棕櫚苑,22.303809,114.188853
九龍城,黃埔花園棕櫚苑4期棕櫚苑6座,黃埔花園棕櫚苑,22.303809,114.188853
九龍城,黃埔花園棕櫚苑6座,黃埔花園棕櫚苑,22.303809,114.188853
九龍城,黃埔花園百合苑,黃埔花園百合苑,22.3032865,114.1894957
九龍城,黃埔花園百合苑1座,黃埔花園九期百合苑1座,22.303304,114.1893206
九龍城,黃埔花園百合苑9期2座,黃埔花園百合苑,22.303305,114.189651
九龍城,黃埔花園第四期2座,黃埔花園,22.3047355,114.1902873
九龍城,黃埔花園紅棉苑5座,黃埔花園七期紅棉苑,22.304086,114.192173
九龍城,黃埔花園紫荊苑11期5座,黃埔花園十一期紫荊苑,22.305919,114.190339
九龍城,黃埔花園紫荊苑4座,黃埔花園十一期紫荊苑4座,22.3059146,114.1903109
九龍城,黃埔花園翠楊苑4座,黃埔花園必嘉街120號黃埔花園三期翠楊苑3座,22.3046948,114.1868509
九龍城,黃埔花園銀竹苑 3座,黃埔花園十二期銀竹苑2座,22.306041,114.191194
九龍城,黃埔花園銀竹苑 一粥麵,一粥麵,22.3062701,114.1882014
九龍城,黃埔花園銀竹苑2座,黃埔花園十二期銀竹苑2座,22.306041,114.191194
九龍城,黃埔花園銀竹苑3座,黃埔花園十二期銀竹苑2座,22.306041,114.191194
九龍城,黃埔花園銀竹苑7座,黃埔花園十二期銀竹苑2座,22.306041,114.191194
九龍城,黃埔花園錦桃苑14座,黃埔花園二期錦桃苑4座,22.304772,114.189582
九龍城,黃埔花園錦桃苑2期 11座,黃埔花園二期錦桃苑4座,22.304772,114.189582
九龍城,黃埔號,黃埔花園,22.3047355,114.1902873
九龍城,黃埔號6期 道頓堀御好燒專門店,道頓堀御好燒專門店,22.3039293,114.1898953
九龍城,黃埔街18號,黃埔街18號,22.306145,114.184875
九龍城,鼎新大廈,鼎新大廈,22.3182994,114.1898697
九龍城,龍崗道3號 好彩茶餐廳,好彩快餐店,22.3282374,114.1902571
九龍城,龍珠商場 七妹美食,龍珠商場,22.3276221,114.1879286
九龍城,龍珠商場,龍珠商場,22.3276221,114.1879286
九龍城,龍珠樓,龍珠商場,22.3276221,114.1879286
九龍城,龍翔閣 添財記,添財記粥粉麵咖啡,22.329377,114.1903235
九龍城,龍譽 2B 座,龍譽,22.3280588,114.2006396
九龍城,龍譽1B座,龍譽,22.3280588,114.2006396
九龍城,龍譽2B座,龍譽,22.3280588,114.2006396
九龍城,龍邦大樓,龍邦大樓,22.329729,114.188054
元朗,+WOO嘉湖1期 一粥麵,一粥麵,22.4579612,114.0028394
元朗,+WOO嘉湖2期 薩莉亞意式餐廳,薩莉亞,22.4573133,114.0044698
元朗,T Town North,T Town,22.4622193,113.9980862
元朗,T Town South 大家樂,大家樂,22.4613957,113.9982159
元朗,T Town South 海港酒家,海港酒家,22.4615574,113.9980316
元朗,T Town,T Town,22.4622193,113.9980862
元朗,七星崗村,Tsat Sing Kong Tsuen,22.445232,114.084308
元朗,上攸田村,上攸田村,22.437685,114.035399
元朗,上村,上村,22.432928,114.100365
元朗,世宙商場,世宙,22.4467238,114.0279616
元朗,中華基督教會基元中學,The Church of Christ in China Kei Yuen College,22.441898,114.035331
元朗,丹桂村路,洪水橋丹桂村路,22.429666,113.998718
元朗,交通廣場 牡丹金閣,牡丹金閣,22.4437548,114.0319081
元朗,交通廣場 百份百餐廳,百分百餐廳,22.4436659,114.0321195
元朗,俊宏軒1座,俊宏軒1座,22.4687684,114.0005291
元朗,俊宏軒2座,俊宏軒2座,22.4690883,114.000715
元朗,俊宏軒4座,俊宏軒4座,22.4696225,114.0013422
元朗,俊宏軒9座,俊宏軒9座,22.4683016,114.0023876
元朗,俊賢坊2號恆運樓,恆運樓,22.4472937,114.0231788
元朗,偉景園1座,偉景園,22.429907,113.998785
元朗,偉記燒烤樂園,偉記元朗燒烤樂園,22.4345459,114.0315261
元朗,元崗426號斌逸豪苑,錦田元崗村公廁,22.425247,114.077603
元朗,元崗村,元崗村,22.428007,114.077179
元朗,元政路12號,元朗元政路12號,22.4425945,114.0384871
元朗,元新大廈地下,OK便利店,22.4442012,114.0312416
元朗,元朗商業中心 大快活,大快活,22.443168,114.027914
元朗,元朗商業中心,元朗商業中心,22.4431631,114.0279409
元朗,元朗安寧路順興樓,順興樓,22.4457579,114.0295133
元朗,元朗廣場 牛一,牛一(元朗廣場分店),22.4448534,114.0238525
元朗,元朗廣場 麥當勞,McDonald’s,22.444916,114.023602
元朗,元朗廣場,元朗廣場,22.4448907,114.0239001
元朗,元朗政府合署,元朗政府合署,22.4454322,114.027228
元朗,元朗柏逸,柏逸,22.4332207,114.0079234
元朗,元發樓,元發樓,22.4449389,114.0260826
元朗,元通樓 至尊雲吞麵雞煲,至尊雲吞麵雞煲,22.4433802,114.0253813
元朗,元達樓 樂怡美食店,樂怡美食店,22.4428421,114.0245726
元朗,兆豐樓,兆豐樓,22.443179,114.0261755
元朗,光明學校,光明學校,22.444753,114.020127
元朗,光華中心 華星冰室,華星冰室 元朗店,22.4440064,114.0301426
元朗,光華廣場,光華廣場,22.443949,114.029332
元朗,八鄉田心村,八鄉田心村公廁,22.42362,114.069617
元朗,八鄉石湖塘,石湖塘餐廳,22.4271373,114.0726912
元朗,八鄉蓮花地,蓮花地,22.427731,114.086964
元朗,公庵路,元朗公庵路,22.427467,114.0226956
元朗,冠煌樓 永順食店,永順食店,22.4463065,114.0291671
元朗,冠煌樓地下 永順食店,永順食店,22.4463065,114.0291671
元朗,利景樓 嘉麗園潮州粉麵餐廳,嘉麗園粉麵,22.444046,114.0274887
元朗,加州花園商場,加州花園廣場,22.4865093,114.0537184
元朗,加州花園會所,加州花園,22.486816,114.053725
元朗,加州花園紅花徑,新田紅花徑,22.487752,114.050281
元朗,勤業樓,勤業樓,22.4447471,114.0249443
元朗,十八鄉瓦窰頭,瓦窰頭,22.427074,114.035362
元朗,南坑村,南坑村,22.42415,114.03217
元朗,南邊圍,南邊圍,22.446806,114.033159
元朗,南邊圍一里,南邊圍,22.446806,114.033159
元朗,又一新城,又一新城商埸,22.4423792,114.0311533
元朗,合益商場,Hop Yick Commercial Centre,22.4423952,114.0300635
元朗,合益廣場,合益廣場,22.4431839,114.0291977
元朗,合益街市,合益街市,22.443742,114.029911
元朗,吉慶圍,吉慶圍,22.4397082,114.064388
元朗,同樂街22號,元朗同樂街22號,22.4456358,114.0281166
元朗,同益大廈,同益大廈,22.4440641,114.0288701
元朗,同益街市,同益街市,22.4436245,114.0301514
元朗,唐人新村,唐人新村,22.43496,114.010486
元朗,唐人新村路1號 唐,唐,22.4418735,114.0091352
元朗,嘉城大廈,嘉城大廈,22.4427437,114.0272542
元朗,嘉湖山莊景湖居12座,嘉湖山莊景湖居12座,22.4583824,114.0059419
元朗,嘉湖山莊景湖居1座,嘉湖山莊景湖居1座,22.4607886,114.0075681
元朗,嘉湖山莊景湖居4座,嘉湖山莊景湖居4座,22.4596687,114.0074751
元朗,嘉湖山莊樂湖居10座,嘉湖山莊樂湖居10座,22.4522263,113.9995766
元朗,嘉湖山莊樂湖居14座,嘉湖山莊樂湖居14座,22.4535205,114.0002271
元朗,嘉湖山莊樂湖居6座,嘉湖山莊樂湖居,22.4512595,114.0012607
元朗,嘉湖山莊美湖居,美湖居,22.4612642,114.0061941
元朗,嘉湖山莊美湖居1座,嘉湖山莊美湖居1座,22.4615982,114.0043622
元朗,嘉湖山莊美湖居2座,嘉湖山莊美湖居2座,22.4613361,114.004641
元朗,嘉湖山莊翠湖居1座,嘉湖山莊翠湖居1座,22.4574914,113.9990903
元朗,嘉湖山莊麗湖居2座,嘉湖山莊麗湖居2座,22.4591691,114.0042693
元朗,嘉湖新北江商場,嘉湖新北江商場,22.4522537,114.0004029
元朗,嘉湖海逸酒店,嘉湖海逸酒店,22.4581069,114.0029806
元朗,嘉湖銀座 百份百餐廳,百份百餐廳,22.4573403,114.0027012
元朗,嘉湖銀座,實惠,22.4573104,114.0038305
元朗,坑尾村,坑尾村站,22.445572,114.0051925
元朗,塘坊村,塘坊村,22.4400592,114.0070215
元朗,塘坊村8號,屏山傳統盆菜,22.4437725,114.007266
元朗,塘頭埔村,塘頭埔村,22.425595,114.038241
元朗,壆圍村,壆圍村,22.465756,114.052627
元朗,大井圍,大井圍,22.4628391,114.0209205
元朗,大旗嶺,大旗嶺,22.4384818,114.0282848
元朗,大棠村,大棠村,22.417445,114.023785
元朗,大棠道61-65號好景樓地下,Ho King Building,22.4462968,114.0239686
元朗,大棠道熟食市場,大棠路熟食市場,22.4436245,114.0284752
元朗,大橋村,大橋村,22.447236,114.027354
元朗,大橋街市,元朗政府合署暨大橋街市,22.4455556,114.0269444
元朗,大江埔,大江埔,22.449711,114.076693
元朗,大生圍,大生圍,22.47097,114.042705
元朗,大生圍攸壆路,攸壆路,22.4708358,114.0488855
元朗,天一商城,天一商城,22.4647433,114.0030365
元朗,天主教培聖中學,天主教培聖中學,22.450165,113.999946
元朗,天富苑善富閣,天富苑O座善富閣,22.464608,114.0009008
元朗,天富苑榮富閣,榮富閣,22.4646412,113.9982178
元朗,天富苑能富閣,天富苑能富閣,22.465179,114.00017
元朗,天富苑齊富閣,天富苑N座齊富閣,22.4647537,114.0005291
元朗,天恒邨恒健樓,天恒邨恒健樓,22.4696862,113.9985777
元朗,天恒邨恒卓樓,天恒邨恒卓樓,22.4709658,113.9993211
元朗,天恒邨恒翠樓,天恒邨恒翠樓,22.4716812,114.0007382
元朗,天恒邨恒通樓,天恒邨,22.4693292,113.9994605
元朗,天恒邨恒運樓,天恒邨恒運樓,22.4702233,114.0001574
元朗,天恩商場,天恩商場,22.462506,113.996396
元朗,天恩邨恩慈樓,天恩邨恩慈樓,22.4630545,113.9963475
元朗,天恩邨恩福樓,天恩邨恩福樓,22.4641161,113.9968121
元朗,天恩邨恩穗樓,天恩邨恩穗樓,22.4632879,113.9954183
元朗,天悅邨悅榮樓,天悅邨悅榮樓,22.4628628,114.0003433
元朗,天悅邨悅華樓,天悅邨悅華樓,22.4628632,113.9997857
元朗,天悅邨悅貴樓,天悅邨悅貴樓,22.4628478,114.0009937
元朗,天慈邨天麗苑,天慈邨,22.452839,114.0082487
元朗,天慈邨慈屏樓,天慈邨慈屏樓,22.4527343,114.0070338
元朗,天慈邨慈恩樓,天慈邨慈恩樓,22.4522541,114.0073125
元朗,天晴商場 美心MX,美心MX,22.4623345,114.0036939
元朗,天晴商場,天晴商場,22.4625203,114.0033886
元朗,天晴邨晴喜樓,天晴邨晴喜樓,22.4639359,114.0051753
元朗,天晴邨晴悅樓,天晴邨晴悅樓,22.4633976,114.0052682
元朗,天晴邨晴滿樓,天晴邨晴滿樓,22.4643434,114.0048036
元朗,天晴邨晴雲樓,天晴邨晴雲樓,22.463103,114.003853
元朗,天澤商場 百份百餐廳,百份百餐廳,22.4682856,113.9988311
元朗,天澤商場 譚仔雲南米線,譚仔雲南米線,22.4682852,113.9987267
元朗,天澤商場,天澤商場,22.4683451,113.9986694
元朗,天澤服務設施大樓,明愛元朗長者社區中心(天澤中心),22.466787,113.997321
元朗,天澤邨 澤宇樓,天澤邨澤宇樓,22.4673451,113.9973697
元朗,天澤邨澤宇樓,天澤邨澤宇樓,22.4673451,113.9973697
元朗,天澤邨澤星樓,天澤邨,22.4672846,113.9975793
元朗,天澤邨澤潤樓,天澤邨澤潤樓,22.4678249,113.9976485
元朗,天澤邨澤輝樓,天澤邨,22.4672846,113.9975793
元朗,天瑞二邨瑞豐樓,天瑞(二)邨9座瑞豐樓,22.4550679,113.9971838
元朗,天瑞商場,天瑞商場,22.4561072,113.9984839
元朗,天瑞廣場 大師傅粥品,大師傅粥品,22.455774,113.9986296
元朗,天瑞街市,天瑞街市,22.4566313,113.9984911
元朗,天瑞邨瑞國樓,天瑞(一)邨6座瑞國樓,22.4567697,113.9974626
元朗,天瑞邨瑞心樓,天瑞(一)邨2座瑞心樓,22.4567269,113.9960687
元朗,天瑞邨瑞泉樓,天瑞(一)邨3座瑞泉樓,22.4569884,113.9966263
元朗,天瑞邨瑞輝樓,天瑞(二)邨8座瑞輝樓,22.45565,113.9968121
元朗,天盛商場,天盛商場,22.4488023,114.0028987
元朗,天盛苑盛亨閣,天盛苑L座盛亨閣,22.4489987,113.9998371
元朗,天盛苑盛彩閣,天盛苑A座盛彩閣,22.4480296,114.002659
元朗,天盛苑盛志閣,天盛苑F座盛志閣,22.4478036,114.0005059
元朗,天盛苑盛旭閣,天盛苑M座盛旭閣,22.4491732,114.0004796
元朗,天盛苑盛泉閣,天盛苑O座盛泉閣,22.4489561,114.0010867
元朗,天盛苑盛譽閣,天盛苑P座盛譽閣,22.4485778,114.0012725
元朗,天盛苑盛賢閣,天盛苑D座盛賢閣,22.4479376,114.0014584
元朗,天盛街市,天盛街市,22.449165,114.002696
元朗,天耀(一)邨耀富樓,天耀(一)邨3座耀富樓,22.44942,114.004705
元朗,天耀(二)邨耀昌樓,天耀(二)邨11座耀昌樓,22.451559,114.003238
元朗,天耀(二)邨耀泰樓,天耀(二)邨9座耀泰樓,22.4524892,114.0035956
元朗,天耀(二)邨耀隆樓,天耀(二)邨10座耀隆樓,22.451316,114.003986
元朗,天耀一邨耀逸樓,耀逸樓,22.4499146,114.0050256
元朗,天耀二邨耀華樓,天耀(二)邨6座耀華樓,22.452185,114.005345
元朗,天耀廣場,天水圍天耀路天耀廣場,22.4509111,114.0033633
元朗,天耀邨耀泰樓,天耀(二)邨9座耀泰樓,22.4524892,114.0035956
元朗,天耀邨耀澤樓,天耀(二)邨8座耀澤樓,22.4528234,114.0042461
元朗,天耀邨耀豐樓,天耀邨耀豐樓,22.4533021,114.0058157
元朗,天耀邨耀逸樓,耀逸樓,22.4499146,114.0050256
元朗,天華邨華彩樓,天華邨華彩樓,22.4615239,113.9956738
元朗,天華邨華萃樓,天華邨華萃樓,22.4604616,113.9953323
元朗,天逸邨逸池樓,天逸邨逸池樓,22.4668483,114.0005291
元朗,天逸邨逸浪樓,天逸邨逸浪樓,22.4671536,114.0008079
元朗,天逸邨逸海樓,天逸邨逸海樓,22.4666015,113.9998786
元朗,天逸邨逸湖樓,天逸邨逸湖樓,22.4662962,113.9995999
元朗,天逸邨逸灣樓,天逸邨逸灣樓,22.4662958,114.0001574
元朗,天頌苑頌棋閣,天頌苑頌棋閣,22.4618065,113.999924
元朗,天頌苑頌水閣,天頌苑D座頌水閣,22.4602703,113.9997625
元朗,天頌苑頌波閣,天頌苑K座頌波閣,22.4607407,113.9977414
元朗,天頌苑頌流閣,天頌苑C座頌流閣,22.4604374,114.0000877
元朗,天頌苑頌海閣,Tin Chung Court Block F Chung Hoi House,22.4597219,113.9986706
元朗,天頌苑頌琴閣,天頌苑N座頌琴閣,22.4613652,113.9993211
元朗,好景樓地下,好景樓,22.4462968,114.0239686
元朗,好景洋樓,好景洋樓,22.4420548,114.0316577
元朗,好順利商場,好順利商場,22.4419724,114.0348458
元朗,好順景大廈,好順景大廈2座,22.4420056,114.0340503
元朗,好順景大廈1座,好順景大廈1座,22.4420205,114.0336786
元朗,好順泰大廈 牡丹金閣,牡丹金閣,22.4416235,114.0281262
元朗,好順泰大廈Ａ座,好順泰大廈A座,22.441847,114.0276954
元朗,安寧路110-136號,好景樓,22.4462968,114.0239686
元朗,安寧路140號,元朗元朗安寧路140號,22.4462644,114.0234027
元朗,安榮樓,安榮樓,22.4459073,114.0292186
元朗,宏業西街33號元朗貿易中心,元朗貿易中心,22.451245,114.028833
元朗,宏樂街楊屋村,楊屋村,22.451358,114.025653
元朗,宏豐大廈 潮龍園,潮龍園,22.4439501,114.0308953
元朗,宏豐大廈,宏豐大廈,22.4440144,114.030858
元朗,富來花園B座,富來花園B座,22.4472641,114.0239222
元朗,富祐閣,富祐閣,22.4428114,114.031286
元朗,富達廣場,富達廣場,22.4413009,114.0287779
元朗,富達廣場A座,富達廣場A座,22.4415624,114.0284181
元朗,富達廣場B座,富達廣場B座,22.4411447,114.0284288
元朗,富銀花園14座,富銀花園14座,22.4250173,114.0744096
元朗,寶城洋樓,寶城洋樓,22.4433291,114.0248049
元朗,寶發大廈,寶發大廈,22.4433372,114.0284984
元朗,寶翠山莊,寶翠山莊,22.447352,114.091754
元朗,尚悅3座,尚悦第三座,22.4374106,114.0330282
元朗,尚豪庭1座,尚豪庭1座,22.4497085,114.0316809
元朗,屏唐花園,屏會街休憩花園,22.446773,114.022329
元朗,屏山坑頭村,坑頭村,22.445566,114.00909
元朗,屏山塘坊村,塘坊村,22.4400592,114.0070215
元朗,屏山殷榮閣,殷榮閣,22.4433453,114.0122142
元朗,屏會街 翠華餐廳,翠華餐廳,22.446337,114.0224332
元朗,屏會街19號幸福樓,幸福樓一期,22.4468877,114.0215992
元朗,屏欣苑屏彥閣,屏欣苑,22.4455411,114.0034577
元朗,山貝村,山貝村,22.449238,114.033575
元朗,峻巒1A期11A座,峻巒,22.4512757,114.0533427
元朗,峻巒1B期7B座,峻巒,22.4512757,114.0533427
元朗,崇正新村,崇正新村三喜堂村公所,22.4305338,114.031198
元朗,幸福樓,幸福樓,22.4469365,114.021198
元朗,幸福樓1期,幸福樓,22.4469365,114.021198
元朗,幸福樓2期 大寶冰室,大寶冰室,22.4449269,114.0235624
元朗,幸福花園,幸福花園,22.475863,114.055474
元朗,康城大樓,康城大樓,22.4433402,114.0245959
元朗,康寧樓,康寧樓,22.4440544,114.0274067
元朗,康德閣,康德閣,22.4428566,114.0293347
元朗,建業街聯發洋樓,聯發洋樓,22.4424185,114.0315648
元朗,建輝大廈,建輝大廈,22.4421341,114.0325404
元朗,形點 I Brotzeit German Beer,Brotzeit German Beer,22.4431277,114.0363986
元朗,形點 I Green Waffle Diner,Green Waffle Diner,22.4432702,114.0363147
元朗,形點 I Pizza Express,PizzaExpress,22.4432583,114.0362091
元朗,形點 I 北京樓,北京樓,22.4453485,114.0374375
元朗,形點 I 馬祖台灣養生湯麵館,形點II,22.4457587,114.0352248
元朗,形點 I,形點II,22.4457587,114.0352248
元朗,形點 II Oliver's Super Sandwiches,Oliver's Super Sandwiches,22.4456852,114.0343881
元朗,形點 II 大家樂,大家樂,22.4455017,114.0341518
元朗,形點 II 太興,太興,22.4457844,114.0352105
元朗,形點 II 譚仔三哥,譚仔三哥,22.4457759,114.0342651
元朗,形點 II 鴻星中菜,Superstar,22.4454678,114.0352401
元朗,形點 II,形點II,22.4457587,114.0352248
元朗,形點 Pizza Express,PizzaExpress,22.4432583,114.0362091
元朗,形點I Green Waffle Diner,Green Waffle Diner,22.4432702,114.0363147
元朗,形點I,形點II,22.4457587,114.0352248
元朗,形點II Oliver's Super Sandwiches,Oliver's Super Sandwiches,22.4456852,114.0343881
元朗,形點II 茶木,TeaWood Taiwanese Cafe & Restaurant,22.445391,114.0351247
元朗,形點II,形點II,22.4457587,114.0352248
元朗,形點二期 茶木,TeaWood Taiwanese Cafe & Restaurant,22.445391,114.0351247
元朗,形點Ｉ Le Grand Pokka Café,Le Grand Pokka Café,22.4435186,114.0364733
元朗,形點Ｉ 北京樓,Peking Garden,22.4453485,114.0374375
元朗,形點Ｉ,形點 I,22.4453875,114.0362594
元朗,御翠園,御翠園,22.4713778,114.053294
元朗,御豪山莊2座,御豪山莊2座,22.4417493,114.0170926
元朗,御豪山莊7座,御豪山莊7座,22.4429709,114.0173713
元朗,悅品天秀酒店.元朗,悦品天秀酒店 元朗,22.4647615,114.0027354
元朗,悅品天秀酒店．元朗,悦品天秀酒店 元朗,22.4647615,114.0027354
元朗,振興新村,振興新村91座,22.446427,114.01736
元朗,攸壆路,元朗攸壆路,22.4677399,114.0400022
元朗,教育路 麗聲冰室,麗聲冰室,22.4430486,114.0235766
元朗,教育路9號興發大廈,興發大樓,22.442855,114.027647
元朗,文惠苑,文惠苑,22.443831,114.0246655
元朗,斌逸雅苑12座,駿逸雅苑,22.4310447,114.0283762
元朗,新元朗中心,新元朗中心,22.444645,114.034954
元朗,新元朗中心3座,新元朗中心,22.44488,114.0345455
元朗,新圍村,新圍村,22.471535,114.063329
元朗,新時代中城2座,新時代中城,22.444244,114.034926
元朗,新時代中城M7座,新時代中城會所,22.4436743,114.036488
元朗,新時代中城M9座,Yoho Midtown 會所,22.4436743,114.036488
元朗,新時代廣場1座,中原地產-元朗新時代廣場第一分行,22.4433506,114.0343755
元朗,新時代廣場8座,中原地產 - 元朗新時代廣場第三分行,22.44385,114.033596
元朗,新田新圍村,新圍村,22.471535,114.063329
元朗,日新大廈,日新大廈,22.444006,114.030369
元朗,日新大廈地下,日新大廈,22.4439901,114.0304497
元朗,昌發大廈 金香泰菜,金香泰菜海南雞飯,22.442147,114.028618
元朗,昌盛大廈,昌盛大廈,22.442147,114.0301013
元朗,朗善邨善愛樓,朗善邨善愛樓,22.441767,114.0451306
元朗,朗城滙1座,朗城滙 Sol City,22.4476143,114.024479
元朗,朗城滙會所,朗城滙 Sol City,22.4476143,114.024479
元朗,朗屏8號1座,朗屏8號,22.4483597,114.0266292
元朗,朗屏8號3座,朗屏8號,22.4484027,114.0268483
元朗,朗屏8號5座,中原地產-元朗朗屏8號分行,22.4460078,114.0272846
元朗,朗屏商場 麥當勞,麥當勞(元朗朗屏分店),22.4506196,114.0228325
元朗,朗屏商場,朗屏商場,22.4502264,114.0232217
元朗,朗屏邨喜屏樓,朗屏邨喜屏樓,22.4490375,114.022591
元朗,朗屏邨燕屏樓,朗屏邨燕屏樓,22.4500461,114.0247397
元朗,朗屏邨玉屏樓,朗屏邨玉屏樓,22.4510498,114.023295
元朗,朗屏邨珠屏樓,朗屏邨珠屏樓,22.4513581,114.0242474
元朗,朗屏邨畫屏樓,朗屏邨畫屏樓,22.4497627,114.0225264
元朗,朗屏邨繡屏樓,朗屏邨繡屏樓,22.4520418,114.0240616
元朗,朗屏邨賀屏樓,朗屏邨賀屏樓,22.4487052,114.0240749
元朗,朗屏邨鳳屏樓,朗屏邨鳳屏樓,22.4494269,114.0244233
元朗,朗屏邨鵲屏樓,朗屏邨鵲屏樓,22.4493861,114.0240225
元朗,朗庭園3座,朗庭園3座,22.4444069,114.0178127
元朗,朗庭園5座,朗庭園5座,22.4444358,114.0181844
元朗,朗景臺2座,朗景臺2座,22.4416423,114.0244332
元朗,朗晴居5座,朗晴居5座,22.4397734,114.033818
元朗,東成里,錦田元朗東成里路,22.4463437,114.0444945
元朗,東鎮圍,東鎮圍,22.501166,114.075056
元朗,柏慧豪園1座,栢慧豪園,22.45926,114.001031
元朗,柏慧豪園5座,栢慧豪園5座,22.4593751,114.0007382
元朗,柏慧豪廷2期 8座,栢慧豪園,22.45926,114.001031
元朗,柏慧豪廷2期8座,栢慧豪園,22.45926,114.001031
元朗,柏雨花園12座,柏雨花園12座,22.4325023,113.9938037
元朗,柏雨花園16座,柏雨花園16座,22.4323748,113.994338
元朗,柏麗豪園6座,柏麗豪園,22.439482,114.01729
元朗,柏𣾷6座,柏𣾷 The Parkhill,22.432809,114.0100088
元朗,栢慧豪園3座,栢慧豪園3座,22.4591786,114.0008776
元朗,栢慧豪廷9座,栢慧豪廷9座,22.4594436,114.0015513
元朗,楊屋村,楊屋村,22.440234,114.041209
元朗,模範鄉,模範鄉,22.459194,114.054006
元朗,橫台山永寧里,橫台山永寧里,22.44166,114.09664
元朗,橫台山羅屋村,橫台山羅屋村,22.440413,114.09382
元朗,橫洲楊屋村,楊屋村,22.451358,114.025653
元朗,橫洲福慶村,橫洲福慶村,22.454763,114.02396
元朗,欖口村,元朗欖口村路,22.4383079,114.0192417
元朗,正大街 海灣海鮮酒家,海灣海鮮酒家,22.4681186,113.9826769
元朗,正大街44號 海灣海鮮酒家,海灣海鮮酒家,22.4681186,113.9826769
元朗,水流田村,水流田村,22.431633,114.083693
元朗,水蕉新村,水蕉新村,22.422452,114.030058
元朗,水邊圍邨山水樓,水邊圍邨,22.4454796,114.0200642
元朗,水邊圍邨泉水樓,水邊圍邨泉水樓,22.4453068,114.0204145
元朗,水邊圍邨湖水樓,水邊圍邨湖水樓,22.4456664,114.0210417
元朗,水邊村,水邊村,22.4439615,114.020368
元朗,永泰樓,永泰樓,22.4427108,114.0251301
元朗,永發大樓,永發大樓,22.4464405,114.0215295
元朗,泰康圍,泰康圍,22.441054,114.065004
元朗,泰苑小築,泰苑小築,22.476813,114.056368
元朗,洪水橋田心村,洪水橋田心村公所,22.434728,113.9922073
元朗,洪水橋石埗村,石埗村,22.441176,113.998471
元朗,洪福商場 麥當勞,麥當勞(元朗洪福商場分店),22.43608,113.997402
元朗,洪福商場,洪福商場,22.4366712,113.9982189
元朗,洪福街市,洪福街市,22.4371545,113.9987658
元朗,洪福邨服務設施大樓,洪福邨服務設施大樓,22.4375313,113.9985312
元朗,洪福邨洪塱樓,洪福邨洪塱樓,22.4379317,113.9979272
元朗,洪福邨洪悅樓,洪福邨洪悅樓,22.438761,113.9976485
元朗,洪福邨洪昌樓,Hung Cheong House Hung Fuk Estate,22.4385286,113.9969051
元朗,洪福邨洪樂樓,洪福邨洪樂樓,22.4373061,113.9980202
元朗,洪福邨洪歡樓,洪福邨洪歡樓,22.4372629,113.9971838
元朗,洪福邨洪盛樓,洪福邨洪盛樓,22.4379394,113.9970444
元朗,深圳灣出入境管制站,深圳灣管制站,22.499256,113.944533
元朗,港鐵元朗站 彩晶軒,彩晶軒,22.4461937,114.035402
元朗,港鐵元朗站地下,元朗站,22.4460876,114.0347702
元朗,港鐵天水圍站,天水圍,22.4482214,114.0047406
元朗,溱柏9座,溱柏,22.4363004,114.0247778
元朗,灰沙圍,灰沙圍,22.438463,114.005902
元朗,炮仗坊,元朗元朗炮仗坊,22.4458182,114.0293138
元朗,炮仗坊11-11A號珍寶樓,元朗元朗炮仗坊11號,22.4455267,114.0291656
元朗,田心村,石崗田心村,22.4230608,114.0699786
元朗,白沙村,白沙村,22.424387,114.022282
元朗,石埗村,石埗村,22.441176,113.998471
元朗,石塘村,石塘村,22.436536,114.045591
元朗,石湖圍,石湖圍,22.4953463,114.0734449
元朗,石湖塘,石湖塘,22.426567,114.070833
元朗,祥發大廈 傷心酸辣粉,傷心酸辣粉,22.4440109,114.0282922
元朗,祥降圍,祥降圍,22.450264,113.986968
元朗,福宏街8號,信昌機器工程有限公司,22.4595642,114.0249211
元朗,福慶村,福慶村,22.455734,114.0253361
元朗,福星樓 嘩鬼拉麵和風料理,嘩鬼拉麵-和風料理,22.444158,114.0250837
元朗,福順樓,福順樓,22.4471059,114.0215992
元朗,米埔合和魚塘,米埔,22.4950569,114.0339342
元朗,紅棗田村,紅棗田村,22.42568,114.031055
元朗,紫荊樓二期,紫荊樓二期,22.4462793,114.0231091
元朗,紫荊樓第二期,Colour Group hair salon,22.446288,114.023063
元朗,置富嘉湖2期 彩逸皇宮,+WOO嘉湖,22.4572699,114.0037781
元朗,美景居,美景居,22.4380985,114.0655471
元朗,美湖居6期1座,嘉湖山莊美湖居7座,22.461469,114.006626
元朗,美湖居6期4座,美湖居,22.4612642,114.0061941
元朗,翠苑,翠園(元朗) Jade Garden(Yuen Long),22.4467901,114.0288886
元朗,翠韻華庭2座,翠韻華庭2座,22.4399546,114.0200428
元朗,翹翠峰6座,翹翠峰6座,22.4395649,114.0209952
元朗,聯昇樓,聯昇樓,22.4442438,114.0270365
元朗,臨時鮮魚批發市場,元朗魚市場,22.4438549,114.0379401
元朗,興業樓,興業樓,22.4431245,114.0234441
元朗,興發大廈 麥當勞,麥當勞,22.4428639,114.0278111
元朗,興發大樓 麥當勞,麥當勞,22.4428639,114.0278111
元朗,興發大樓,興發大樓,22.442855,114.027647
元朗,興隆中心,興隆中心,22.4449895,114.0276748
元朗,舊李屋村,舊李屋村,22.441155,113.991465
元朗,良材大樓C座,良材大樓C座,22.4471706,114.0225749
元朗,良材大樓Ｃ座,良材大樓C座,22.4471706,114.0225749
元朗,萬金中心,萬金中心,22.4451019,114.0314254
元朗,葡萄園,葡萄園一期美冬大道20號屋,22.481369,114.063764
元朗,葡萄園貝翠大道,葡萄園一期美冬大道20號屋,22.481369,114.063764
元朗,蝦尾新村路 華嫂冰室,華嫂冰室,22.4517424,114.0112078
元朗,蝶翠峰12座,蝶翠峰綠庭園12座,22.4375579,114.0307053
元朗,蝶翠峰16座,蝶翠峰16座,22.4367426,114.0317274
元朗,蝶翠峰17座,蝶翠峰綠庭園17座,22.436925,114.031184
元朗,蝶翠峰2座,蝶翠峰2座,22.4358266,114.0314486
元朗,蝶翠峰3座,蝶翠峰3座,22.4357105,114.0310769
元朗,裕景坊11號,興發樓,22.4433629,114.0281965
元朗,裕景坊11號興發樓,興發樓,22.4433629,114.0281965
元朗,譽88 2座,譽88 第二座,22.4391016,114.0326798
元朗,譽88 會所,譽88,22.4399009,114.0325447
元朗,谷亭街13號地下 得閒飲茶,得閒飲茶,22.4448945,114.0296231
元朗,谷亭街8號 煇記香港仔魚蛋粉,輝記香港仔魚蛋粉,22.4427458,114.0290003
元朗,豐年路19號地下,號地下,22.4438806,114.0246724
元朗,豐興樓,豐興樓,22.443097,114.027507
元朗,豐興樓地下,豐興樓,22.443097,114.027507
元朗,豐財樓,豐財樓,22.443558,114.0297296
元朗,輞井村,輞井村,22.4767699,114.0004711
元朗,遠東發展元朗大廈,遠東發展元朗大廈,22.445211,114.032065
元朗,酒街,元朗酒街,22.4479031,114.0334001
元朗,采葉庭 11座,采葉庭11座,22.4508533,114.0323081
元朗,采葉庭12座,采葉庭12座,22.4511622,114.0324242
元朗,采葉庭3座,采葉庭3座,22.4504856,114.0328424
元朗,采葉庭5座,采葉庭5座,22.4503035,114.0331676
元朗,采葉庭7座,采葉庭,22.4504188,114.0332811
元朗,金寶樓 名川麵棧,名川麵棧,22.4452522,114.0282892
元朗,金朗大廈 爭鮮迴轉壽司,爭鮮迴轉壽司 Sushi Express,22.4422469,114.0290814
元朗,金輝大廈,金輝大廈,22.442654,114.026408
元朗,錦上路謝屋村,錦上路,22.4282114,114.0834289
元朗,錦安花園40座,錦安花園,22.4369975,114.0653741
元朗,錦田戲院大廈,高寶地產(香港)有限公司,22.440245,114.064508
元朗,錦田街市,錦田街市,22.439965,114.065084
元朗,錦田逢吉鄉,錦田,22.440058,114.0650077
元朗,錦綉花園荔枝東路,錦綉花園荔枝東路,22.4807062,114.0502584
元朗,錫降村,錫降村,22.449749,113.99183
元朗,開心廣場 Pizza Hut,必勝客(元朗開心廣場分店),22.444665,114.028109
元朗,雅珊園 (商場),雅珊園停車場,22.4340491,113.9964785
元朗,雅珊園 3座,雅珊園3座,22.4340084,113.9966495
元朗,雅珊園 德福海鮮酒家,德福海鮮酒家,22.4340575,113.9965909
元朗,雅珊園3座,雅珊園3座,22.4340084,113.9966495
元朗,雅珊園德福海鮮酒家,德福海鮮酒家,22.4340575,113.9965909
元朗,青山公路 - 元朗段 實惠,實惠,22.4573104,114.0038305
元朗,青山公路元朗段21號,元美大廈,22.4446402,114.0314486
元朗,青山公路－元朗段 130-132號,元朗青山公路元朗段130號,22.4443912,114.0283726
元朗,順發大廈 東方(勝記)飯店,東方(勝記)飯店,22.4458134,114.0245713
元朗,香港駕駛學院 元朗安全駕駛中心,香港駕駛學院 元朗安全駕駛中心,22.4536284,114.0317285
元朗,馬田村,馬田村,22.4404787,114.0239453
元朗,高埔新村,Ko Po San Tsuen,22.44037,114.051659
元朗,高埔村,高埔村,22.44176,114.056859
元朗,魚類批發市場,元朗鮮魚行商會,22.443735,114.038104
元朗,鳳池村,鳳池村,22.44818,114.019772
元朗,鳳翔大廈 覓食家,覓食家,22.4426972,114.0328335
元朗,鳳降村,鳳降村,22.456858,113.984029
元朗,鴻業樓,鴻業樓,22.4443939,114.0239694
元朗,鴻發大樓,鴻發大樓,22.4428897,114.0241313
元朗,鴻運中心 名門讌客,名門讌客,22.442519,114.0331444
元朗,鴻運中心,鴻運中心,22.442555,114.0332337
元朗,鴻運樓,鴻運樓,22.4428901,114.0235737
元朗,黃屋村,黃屋村,22.447873,114.039256
元朗,黃屋村210號栢譽,栢譽,22.4467593,114.038292
北區,上水中心,上水中心,22.5008858,114.1299577
北區,上水中心購物商場,中國銀行（香港）彩園商場,22.5011182,114.1260535
北區,上水中心靠得住粥麵小館,靠得住粥麵小館,22.5009711,114.1292827
北區,上水名都商場,上水名都商場,22.5012113,114.1316266
北區,上水名都羅馬閣,羅馬閣,22.5009022,114.1313868
北區,上水圍,上水圍上北村公廁,22.510582,114.125547
北區,上水屠房,上水屠房,22.5134561,114.1173666
北區,上水廣場,上水廣場,22.5025848,114.1279107
北區,上水滙,上水匯,22.5031152,114.1279402
北區,中華基督教會基新中學,中華基督教會基新中學,22.490387,114.135063
北區,劍橋廣場,劍橋廣場停車場,22.506724,114.122238
北區,北區大會堂,北區大會堂,22.501626,114.128858
北區,北區運動場,北區運動場,22.5063119,114.1305155
北區,古洞燕崗村,燕崗村,22.504387,114.111056
北區,和合石村,和合石村公廁,22.4860411,114.1470433
北區,和泰街21號 雄泰,雄泰,22.4991668,114.1416671
北區,和豐工業大廈 華記永樂飯堂,華記永樂飯堂,22.492232,114.146409
北區,和豐街17-19號,粉嶺和豐街17號,22.4984576,114.1422974
北區,唐公嶺,唐公嶺,22.487601,114.108615
北區,嘉福邨商場,嘉福商場,22.4934415,114.1355732
北區,嘉里貨倉 (上水),嘉里貨倉（上水）,22.5075756,114.1214542
北區,坑頭村麗晶花園,麗晶花園（坑頭村村公所北）,22.4923013,114.1023526
北區,坑頭村麗晶花園3至4座地下及5至6座,坑頭扶康護理舍,22.4923966,114.1023751
北區,坪洋新村,坪洋壁畫村,22.5313756,114.158381
北區,大元村,大元村,22.509368,114.12554
北區,大元村新一巷3號,莆上村新一巷3號,22.508076,114.123421
北區,天平商場,天平商場 天平邨,22.503554,114.1338055
北區,天平邨天怡樓,天平邨天怡樓,22.5046526,114.1318438
北區,天平邨天明樓,天平邨天明樓,22.5025593,114.1335774
北區,天平邨天祥樓,天平邨天祥樓,22.5039833,114.1317184
北區,天平邨天美樓,天平邨天美樓,22.5016284,114.133949
北區,天平邨天賀樓,天平邨天賀樓,22.5034583,114.1323002
北區,太平邨平易樓,太平邨D座平易樓,22.4972344,114.1265869
北區,太平邨平熙樓,太平邨C座平熙樓,22.4974863,114.1259598
北區,威尼斯花園1座,威尼斯花園1座,22.4976429,114.1277249
北區,孔嶺,孔嶺村,22.5145665,114.167522
北區,安圃村,安圃村,22.490185,114.117131
北區,安盛苑,安盛苑,22.5024258,114.1349709
北區,富好閣,富好閣,22.4992578,114.1438193
北區,富榮大廈,富榮大廈,22.5049619,114.1295596
北區,寶樹花園3期,寶樹花園三期,22.4925945,114.1032687
北區,寶樹花園三期,寶樹花園三期,22.4925945,114.1032687
北區,寶石湖邨紫晶樓 2座,寶石湖邨,22.5033726,114.1244286
北區,寶石湖邨紫晶樓,紫晶樓,22.50344,114.1241881
北區,寶石湖邨紫晶樓2座,寶石湖邨,22.5033726,114.1244286
北區,尼斯花園22座,尼斯花園,22.4912018,114.1026916
北區,山翠苑,山翠苑,22.4918824,114.1358766
北區,帝庭軒2座,帝庭軒購物商場,22.5003493,114.1437134
北區,帝庭軒購物商場 大快活,大快活,22.5007975,114.1442837
北區,帝庭軒購物商場 海港酒家,Victoria Harbour Restaurant,22.5005939,114.1438193
北區,帝庭軒購物商場,帝庭軒購物商場,22.5003493,114.1437134
北區,廣新行貨倉,廣新行貨倉有限公司（第四倉）,22.496579,114.146083
北區,張知行大廈 海港酒家,海港酒樓,22.5044917,114.1267215
北區,彩園商場 纜車餐廳,纜車餐廳,22.5001301,114.1269041
北區,彩園廣場 九份•十分,九份十分,22.501342,114.126446
北區,彩園廣場 大家樂,大家樂,22.5033698,114.1264664
北區,彩園廣場 纜車餐廳,纜車餐廳,22.5001301,114.1269041
北區,彩園廣場 麥當勞,麥當勞,22.5005251,114.1261684
北區,彩園廣場,彩園商場,22.5014606,114.1264366
北區,彩園邨彩屏樓,彩園邨,22.5019707,114.126513
北區,彩園邨彩湖樓,彩園邨彩湖樓,22.5006282,114.124845
北區,彩園邨彩玉樓,彩園邨彩玉樓,22.5015277,114.125774
北區,彩園邨彩華樓,彩華樓,22.4998273,114.1265198
北區,彩園邨彩麗樓,彩園邨彩麗樓,22.5000019,114.1254953
北區,彩蒲苑彩顏閣,彩蒲苑彩顏閣,22.5010835,114.1243108
北區,御林皇府,御林皇府,22.499752,114.1105347
北區,御皇庭1座,御皇庭1座,22.4950275,114.1271675
北區,愛民廣場 百份百餐廳,Café 100%,22.4868253,114.1422559
北區,慧雯花園,慧雯花園,22.503997,114.112207
北區,掃管埔村,掃管埔村,22.499572,114.130616
北區,文閣村,上水圍文閣村九房停車場,22.5125929,114.1251434
北區,新健街19號,上水新健街19號,22.5056767,114.1277715
北區,新屋嶺村,新屋嶺練靶場,22.53134,114.128953
北區,新成路107號 皇牌冰室,冰室,22.5044692,114.1297106
北區,新豐路63A,上水新豐路63號,22.5049621,114.1267549
北區,新都廣場,新都廣場,22.5020666,114.1292796
北區,旭埔苑周湖閣,Yuk Po Court Chow Wu House,22.4999276,114.1283055
北區,旭埔苑清湖閣,旭埔苑清湖閣,22.5006495,114.1270514
北區,昌盛苑昌潤閣,昌盛苑D座昌潤閣,22.4835807,114.1388726
北區,昌盛苑昌靖閣,昌盛苑A座昌靖閣,22.4836553,114.1378507
北區,景盛苑賢景閣,景盛苑賢景閣,22.4877048,114.1409163
北區,松柏塱,Tsung Pak Long,22.500895,114.1182555
北區,榮福中心2座,榮福中心,22.5011199,114.1415615
北區,榮輝中心,榮輝中心,22.5017681,114.1435336
北區,榮輝中心1座,榮輝中心1座,22.5015246,114.1423097
北區,榮輝中心商場,榮輝中心商場,22.5011882,114.1423046
北區,欣盛苑欣秀閣,欣盛苑A座欣秀閣,22.4865868,114.140266
北區,永寧村,永寧籃球場,22.5009877,114.1511485
北區,沙頭角公路 龍躍頭段18號,粉嶺沙頭角公路龍躍頭段18號,22.4980069,114.1442837
北區,沙頭角農莊,沙頭角農莊,22.538962,114.2131527
北區,河上鄉,河上鄉,22.511836,114.108369
北區,海禧華庭 一品燒鵝海鮮酒家,譚仔三哥米線 海禧華庭,22.5048876,114.1289555
北區,海聯廣場 麥當勞,海聯廣場商場,22.500198,114.141608
北區,清河邨清平樓,清河邨清平樓,22.493591,114.125774
北區,清河邨清朗樓,清河邨清朗樓,22.4930677,114.125774
北區,清河邨清潤樓,清河邨清潤樓,22.49359,114.1263314
北區,清河邨清頌樓,清河邨清頌樓,22.4939059,114.1279199
北區,港鐵粉嶺站 MX,美心,22.4920749,114.1388344
北區,港鐵粉嶺站 美心MX,美心,22.4920749,114.1388344
北區,港鐵粉嶺站 美心西餅,美心餅店,22.4856402,114.1408238
北區,牽晴間10座,牽晴間10座,22.4875808,114.1445403
北區,牽晴間1座,牽晴間1座,22.4870983,114.1432881
北區,牽晴間4座,牽晴間4座,22.4866087,114.1439818
北區,牽晴間商場 金龍餐廳,金龍餐廳,22.4866307,114.1437263
北區,牽晴間第１座,牽晴間10座,22.4875669,114.1445392
北區,皇府山1座,皇府山1座,22.5036184,114.1345993
北區,皇府山5座,皇府山5座,22.504024,114.1353425
北區,石湖墟市政大廈,石湖墟市政大廈,22.502011,114.130402
北區,碧湖花園 麥當勞,麥當勞,22.4855191,114.1407608
北區,祥華邨祥德樓,祥華邨祥德樓,22.4936917,114.1416594
北區,祥華邨祥景樓,祥華邨祥景樓,22.4927783,114.1423329
北區,祥華邨祥順樓,祥華邨祥順樓,22.4928938,114.1427045
北區,祥龍圍邨 越來越愛,越來越愛,22.4950665,114.1242053
北區,祥龍薈 大家樂,大家樂,22.4949884,114.1236619
北區,福成商業大廈,福成商業大廈,22.4985959,114.1459326
北區,粉嶺一號橋,聯大地産,22.4996122,114.1421889
北區,粉嶺中心 好日子皇宴,好日子皇宴,22.4906399,114.1410513
北區,粉嶺中心 新釗記茶餐廳,新釗記茶餐廳,22.3580641,114.1275159
北區,粉嶺中心 翠河餐廳,翠河餐廳,22.4907167,114.1408665
北區,粉嶺中心 譚仔三哥米線,譚仔雲南米線,22.491704,114.1398429
北區,粉嶺中心,粉嶺名都,22.4929319,114.1389987
北區,粉嶺名都,粉嶺名都,22.4929319,114.1389987
北區,粉嶺名都商場 大家樂,大家樂,22.492674,114.138832
北區,粉嶺名都商場 海皇粥店,Ocean Empire,22.4928076,114.1390885
北區,粉嶺名都商場,粉嶺名都,22.4929319,114.1389987
北區,粉嶺名都富臨閣,粉嶺名都富臨閣,22.49297,114.1390583
北區,粉嶺圍,粉嶺圍,22.497335,114.135187
北區,粉嶺神召會幼稚園,粉嶺神召會幼稚園,22.495548,114.140315
北區,綠悠軒2座,綠悠軒2座,22.501434,114.14577
北區,綠悠軒5座,綠悠軒5座,22.5015235,114.1446553
北區,綠悠軒6座,綠悠軒6座,22.5018282,114.144934
北區,綠悠軒第六座,綠悠軒,22.5015946,114.1460492
北區,翠麗花園 2 座,翠麗花園,22.5078859,114.1294971
北區,翠麗花園,翠麗花園,22.5078859,114.1294971
北區,翠麗花園1座,翠麗花園1座,22.5080653,114.1295132
北區,翠麗花園2座,翠麗花園2座,22.5082913,114.129188
北區,翠麗花園3座,翠麗花園3座,22.5085246,114.1288164
北區,聯和墟市政大廈,聯和墟街市及熟食中心,22.4997106,114.1444967
北區,聯和墟街市及熟食中心,聯和墟街市及熟食中心,22.4997106,114.1444967
北區,聯和市場,聯和市場,22.497868,114.142784
北區,聯安街39號 水上人生滾粥,水上人生滾粥,22.4999177,114.1431457
北區,聯盛街28號 狂潮美食坊,狂潮美食坊,22.4994428,114.1424628
北區,花都廣場 7 座,花都廣場,22.4854804,114.141195
北區,花都廣場 九龍冰廳,九龍冰廳,22.4847379,114.1415815
北區,花都廣場,花都廣場,22.4854804,114.141195
北區,花都廣場7座,花都廣場,22.4854804,114.141195
北區,莆上村,莆上村,22.508527,114.123907
北區,華山村,華山村,22.516675,114.13401
北區,華心商場,華心商場,22.4867215,114.1420688
北區,華心邨商場,華心商場,22.4867215,114.1420688
北區,華心邨華冠樓,華心邨華冠樓,22.485928,114.1427742
北區,華心邨華勉樓,華勉樓,22.4857642,114.1432929
北區,華明商場 大快活,Fairwood,22.4859658,114.141242
北區,華明商場 皇庭匯,皇庭匯（ 粉嶺店）,22.4839188,114.1414234
北區,華明商場,華明商場,22.4839515,114.1410948
北區,華明邨信明樓,華明邨信明樓,22.4845167,114.1402989
北區,華明邨信明樓地下及一樓一號,華明邨信明樓,22.4845216,114.1381102
北區,華明邨富明樓,粉嶺華明邨富明樓,22.4830452,114.1398734
北區,華明邨禮明樓,華明邨1座禮明樓,22.4853081,114.1400802
北區,華明邨耀明樓,華明邨耀明樓,22.4824137,114.1414465
北區,華明邨頌明樓,華明邨5座頌明樓,22.4827927,114.1405447
北區,蓬瀛仙館,蓬瀛仙館,22.4904111,114.1384894
北區,行樂坊,行樂坊,22.5042303,114.1266159
北區,豐盈工貿中心,豐盈工貿中心,22.498768,114.1470473
北區,軍地虎地排,虎地排,22.507059,114.16253
北區,逸峯廣場,逸峯廣場,22.5009595,114.1460667
北區,金誠樓 麥當勞,金誠樓+麥當勞,22.5042549,114.1200498
北區,門口村,門口村,22.510153,114.123994
北區,雍盛苑雍華閣,雍盛苑雍華閣,22.4816369,114.1368288
北區,雍盛苑雍萃閣,雍盛苑,22.4824191,114.1372606
北區,雍盛苑雍薈閣,雍盛苑雍薈閣,22.4829429,114.1379436
北區,雞嶺村,雞嶺村公廁,22.4939593,114.1291514
北區,順欣花園 小廚知味,小廚知味,22.5015395,114.132034
北區,順欣花園,順欣花園,22.501595,114.132054
北區,順欣花園地下,順欣花園,22.501595,114.132054
北區,香港浸會園,香港浸會園,22.5222012,114.1633022
北區,香港耀能協會賽馬會白普理華心護康中心,香港耀能協會賽馬會白普理華心護康中心,22.4857816,114.1434129
北區,香港道教聯合會鄧顯紀念中學,香港道教聯合會鄧顯紀念中學,22.4995845,114.1292677
北區,馬尾下嶺咀,馬尾下,22.516962,114.172522
北區,馬尾下村,馬尾下村,22.517898,114.176737
北區,馬屎埔,馬屎埔,22.50257,114.142811
北區,馬屎埔西村,深圳市向西物业管理有限公司向西村出租屋管理服务中心,22.54188,114.126229
北區,馬會道164號 新天地茶餐廳,新天地餐廳,22.5045841,114.1278516
北區,馬適路地盤,烏鴉落陽,22.504491,114.14142
北區,高爾夫景園7座,高爾夫景園7座,22.5020331,114.1177614
北區,高爾夫．御苑7座,高爾夫．御苑,22.5001325,114.1197882
北區,龍琛路16號,上水龍琛路16號,22.503716,114.12973
北區,龍琛路8號,上水龍琛路8號,22.503825,114.129866
北區,龍豐花園 唐記包點,龍豐花園,22.5030709,114.1272403
北區,龍豐花園 稻香,稻香超級漁港,22.5032162,114.1297871
北區,龍豐花園A座,龍豐花園A座,22.5030936,114.1297919
北區,龍豐花園商場 豐泰牛雜專家,豐泰牛雜專家,22.5030725,114.1296909
北區,龍豐花園商場,龍豐花園商場,22.5027656,114.129665
北區,龍豐花園地下,龍豐花園商場,22.5027656,114.129665
南區,Marina Tower,MARINA TOWER,22.2449643,114.1648858
南區,仁勝大廈,仁勝大廈,22.2494766,114.1480764
南區,仁正大廈,仁正大廈,22.243637,114.1551291
南區,僑民大廈,僑民大廈,22.243347,114.1542002
南區,冠冕臺7-13號 Bisney Villa,碧麗園,22.2696259,114.1266798
南區,利東商場 名苑酒樓,名苑酒家,22.2409848,114.1558737
南區,利東商場 大家樂,大家樂,22.240969,114.1559138
南區,利東商場,利東商場,22.2409897,114.1559524
南區,利東村東興樓,利東邨東興樓,22.2409917,114.1553149
南區,利東邨東安樓,利東邨東安樓,22.2406418,114.156987
南區,利東邨東昇樓,利東邨東昇樓,22.241485,114.1566154
南區,利東邨東昌樓,利東邨東昌樓,22.2416169,114.1540655
南區,利東邨東興樓,利東邨東興樓,22.2409917,114.1553149
南區,利東邨東茂樓,利東邨東茂樓,22.241631,114.1556865
南區,利東邨街市,利東邨街市及熟食檔,22.2414193,114.1550153
南區,利群商業大廈,Abba Commercial Building,22.2485039,114.1528764
南區,利達中心,利達中心,22.2487304,114.1659974
南區,卑路乍街123號,西環卑路乍街123號,22.2826393,114.1278695
南區,南寧街ac2 百樂門囍宴,百樂門宴會廳(香港仔店),22.2483687,114.1532991
南區,南岸奧華酒店,Ovolo Southside,22.249579,114.1690321
南區,南景花園(商場),South View Garden,22.2491127,114.1485465
南區,南景花園,南景花園,22.2491127,114.1485465
南區,南濤閣1座,南濤閣1座,22.2444541,114.1658813
南區,南濤閣2座,South Wave Court Block 2,22.2449078,114.1664619
南區,南濤閣3座,南濤閣3座,22.2448246,114.1660206
南區,南灣9座,南灣9座,22.240862,114.1590538
南區,嘉尚匯,基督教宣道會深恩堂(嘉尚匯聚會點),22.2479711,114.1655106
南區,嘉隆苑嘉俊閣,嘉隆苑C座嘉俊閣,22.2493471,114.1380172
南區,嘉隆苑嘉昇閣,嘉隆苑A座嘉昇閣,22.2495083,114.1389887
南區,天后廟道3號,天后廟道三號花園,22.2860649,114.1953167
南區,如心南灣海景酒店,如心南灣海景酒店,22.2497896,114.1681339
南區,富林苑CD座,富林苑,22.279679,114.131662
南區,富林苑C座,富林苑,22.279679,114.131662
南區,富豪海灣,富豪海灣會所,22.2085288,114.2132994
南區,影灣園商場,影灣園,22.2390654,114.1958494
南區,怡華工業大廈,怡達工業大廈,22.2487126,114.1684497
南區,數碼港商場 El Charro Mexican Cantina,El Charro,22.2605593,114.1294893
南區,數碼港商場 麥當勞,麥當勞,22.2617052,114.1303727
南區,映月閣１座,映月閣,22.226021,114.216909
南區,朗盈商業大廈,朗盈商業大廈,22.24805,114.155382
南區,木蘭苑,木蘭苑業主立案法團,22.287187,114.192112
南區,東勝道21號 合利粥品店,合利粥品店,22.2486618,114.1551731
南區,東華三院蕭旺李滿福幼兒園,東華三院蕭旺李滿福幼兒園,22.248613,114.156193
南區,東華三院賽馬會復康中心B座,東華三院賽馬會復康中心,22.2466578,114.1636524
南區,東華三院賽馬會松朗安老綜合中心,TWGHs Jockey Club Sunshine Complex for the Elderly 東華三院賽馬會松朗安老綜合中心,22.243891,114.166154
南區,東頭灣道61號,赤柱監獄職員宿舍4座,22.2151581,114.220335
南區,松竹苑House 1,南埼1號屋天築,22.216495,114.205571
南區,洛陽街1號,香港仔洛陽街,22.2492486,114.1552152
南區,海怡半島4期26座,海怡半島四期26座御盈居,22.242714,114.1497645
南區,海怡半島怡滿閣,海怡半島第二期15座怡韻閣,22.243179,114.146127
南區,海怡半島怡豐閣,海怡半島第二期11座怡豐閣,22.244399,114.145846
南區,海怡半島怡豐閣11座,海怡半島第二期11座怡豐閣,22.244399,114.145846
南區,海怡半島怡雅閣,海怡半島第二期9座怡雅閣,22.2440632,114.1447667
南區,海怡半島怡雅閣9座,海怡半島第二期9座怡雅閣,22.2440632,114.1447667
南區,海怡半島怡韻閣,海怡半島怡韻閣; 海怡路,22.2433767,114.1463188
南區,海怡半島怡麗閣,怡麗閣,22.2424227,114.1492644
南區,海怡半島柏景閣,海怡半島四期29座豐景閣,22.243803,114.150128
南區,海怡半島美家閣,美家閣,22.2421636,114.1488258
南區,海怡半島美浚閣,海怡半島第三期21座美浚閣,22.2420248,114.1477673
南區,海怡半島美浚閣21座,海怡半島第三期21座美浚閣,22.2420248,114.1477673
南區,海怡半島豐景閣29座,海怡半島四期29座豐景閣,22.243803,114.150128
南區,海怡西商場 上海姥姥,上海姥姥,22.2439086,114.1467017
南區,海怡西商場 元気寿司,元気寿司 GENKI SUSHI,22.2438591,114.1467163
南區,海怡西商場 八方雲集鍋貼水餃專門店,八方雲集鍋貼水餃專門店,22.2441674,114.1467821
南區,海怡西商場,海怡西商場,22.2437937,114.1468214
南區,海怡西廣場,海怡西商場,22.2437937,114.1468214
南區,海洋公園,海洋公園,22.2466607,114.1757239
南區,海龍閣,香港仔中心海龍閣,22.2481762,114.1538518
南區,深灣9號8座,深灣9號第八座,22.2457417,114.1640699
南區,深灣遊艇俱樂部,深灣遊艇會,22.244447,114.164729
南區,港怡醫院,港怡醫院,22.2515672,114.1763966
南區,港怡醫院南座,港怡醫院,22.2515672,114.1763966
南區,漁光村順風樓,漁光邨順風樓,22.2509464,114.1568941
南區,漁光邨海港樓,漁光邨海港樓,22.2513059,114.1572424
南區,漁安苑碧安閣,漁安苑碧安閣,22.2429963,114.156987
南區,田灣懲教署職員宿舍,懲教署職員宿舍,22.214474,114.22113
南區,田灣邨田麗樓,田灣邨田麗樓,22.2524909,114.1515063
南區,石排灣商場,石排灣商場,22.248788,114.1570334
南區,石排灣道66號,田灣石排灣道66號,22.2494157,114.1483524
南區,石排灣邨碧園樓,石排灣邨5座碧園樓,22.2493759,114.1580088
南區,石排灣邨碧月樓,石排灣邨2座碧月樓,22.248953,114.157267
南區,石排灣邨碧朗樓,石排灣邨1座碧朗樓,22.2484609,114.1571727
南區,石排灣邨碧綠樓,石排灣邨7座碧綠樓,22.2486203,114.157823
南區,石排灣邨碧銀樓,石排灣邨3-3A座碧銀樓,22.2495653,114.1573585
南區,碧瑤灣21座,碧瑤灣21座,22.2628553,114.1334149
南區,碧瑤灣27座,碧瑤灣27座,22.2615302,114.1341096
南區,碧瑤灣第21座,碧瑤灣21座,22.262855,114.133404
南區,碧瑤灣第２７座,Baguio Villa,22.261613,114.1339254
南區,碧麗苑,碧麗苑,22.2663324,114.1284913
南區,紅山花園,紅山花園,22.231879,114.225583
南區,置富南區廣場 必勝客,必勝客,22.258305,114.138783
南區,置富南區廣場,置富南區廣場,22.2578562,114.1387601
南區,置富花園富安苑,Chi Fu Fa Yuen Fu On Yuen,22.2557004,114.1389887
南區,置富花園富恒苑,置富花園富恆苑,22.2579494,114.1395228
南區,置富花園富明苑,置富花園富明苑,22.2585791,114.1378739
南區,置富花園富榮苑,置富花園富榮苑,22.2587321,114.1371772
南區,置富花園富興苑,置富花園富興苑,22.2589503,114.1368985
南區,美利樓 帝樂 - 德國餐廳,King Ludw
