地區,大廈名單,name,lat,lng
中西區,上環市政大廈,上環市政大廈,22.2861898,114.149703
中西區,上環市政大廈熟食中心,上環街市及熟食中心,22.286011,114.149629
中西區,上環文娛中心,上環文娛中心,22.2861716,114.1497647
中西區,中國工商銀行大廈,ICBC Tower,22.2768058,114.1651426
中西區,中建大廈,中建大廈,22.2811499,114.1573655
中西區,中環李錦記,中環李錦記,22.2834411,114.1564064
中西區,中環街市,中環街市,22.283944,114.1555478
中西區,五福大廈 Little Creatures,Little Creatures Brewing Kennedy Town,22.2838778,114.128425
中西區,交易廣場,交易廣場,22.2840347,114.1577759
中西區,交易廣塲2座 Classified,交易廣場,22.2840347,114.1577759
中西區,信德中心西座,信德中心西翼,22.2879654,114.1511831
中西區,僑發大廈,僑發大廈,22.2866074,114.1463971
中西區,兆景閣 The Diner,The Diner,22.2801607,114.1545894
中西區,八達大廈 大快活,大快活,22.285842,114.1490781
中西區,凌霄閣,凌霄閣,22.2712357,114.1499638
中西區,加列山道34號,山頂加列山道34號,22.2615204,114.1499252
中西區,勝基中心,勝基中心,22.2846531,114.1520985
中西區,勵精中心,勵精中心,22.2831406,114.1551291
中西區,匡景居,匡景居,22.2831912,114.1513437
中西區,卑路乍街122號,堅尼地城卑路乍街122號,22.2823439,114.1273242
中西區,卑路乍街123號,西環卑路乍街123號,22.2826393,114.1278695
中西區,卑路乍街125號,堅尼地城卑路乍街125號,22.282643,114.1277953
中西區,卑路乍街17-35號,西環卑路乍街17號,22.2838757,114.1308814
中西區,卑路乍街3號 德記潮州菜館,德記,22.285553,114.1323013
中西區,南和行大廈,南和行大廈,22.2872074,114.1492739
中西區,南賓大廈,南賓大廈,22.275927,114.1563704
中西區,卿旺大廈 翠湖海鮮酒家,翠湖海鮮飯店,22.283317,114.127546
中西區,厚福大廈,厚福大廈,22.2860797,114.1336703
中西區,同興樓 豪景茶餐廳,同興樓,22.2833719,114.1276923
中西區,同興樓,同興樓,22.2832153,114.1298383
中西區,嘉利大廈 La Vache!,La Vache!,22.282447,114.152717
中西區,嘉咸市集,嘉咸市集,22.2833092,114.1535273
中西區,嘉寶大廈,嘉寶大廈,22.2855747,114.1478638
中西區,嘉諾撒醫院,嘉諾撒醫院,22.277345,114.153853
中西區,嘉輝大廈,嘉輝大廈,22.2816187,114.1503915
中西區,國際金融中心 Duck & Waffle,Duck and Waffle,22.2851589,114.1588412
中西區,國際金融中心 Shake Shack,Shake Shack,22.2853732,114.1589297
中西區,國際金融中心 翡翠拉麵小籠包,翡翠拉麵小籠包 - 中環,22.2845458,114.1579941
中西區,國際金融中心商場 Duck & Waffle,Duck and Waffle,22.2851589,114.1588412
中西區,國際金融中心商場 Greyhound Café,Greyhound Cafe,22.2855858,114.1590567
中西區,國際金融中心商場 翡翠拉麵小籠包,翡翠拉麵小籠包 - 中環,22.2845458,114.1579941
中西區,均益大廈3期A座,均益大廈2期商場,22.2875172,114.1380481
中西區,城紫蘭樓,紫蘭樓,22.2819117,114.1309879
中西區,堅尼地城社區綜合大樓,堅尼地城社區綜合大樓,22.281904,114.12908
中西區,士美菲路市政大廈,士美非路巿政大廈,22.2816862,114.1286074
中西區,士美菲路街市及熟食中心,士美菲路街市及熟食中心,22.2816862,114.1286074
中西區,大學堂宿舍,香港大學大學堂,22.2635104,114.1352124
中西區,大眾銀行中心,大眾銀行中心,22.2850158,114.1548504
中西區,太古廣場 Kokomi,Kokomi,22.2773539,114.1661983
中西區,太古廣場,太古廣場,22.277152,114.1648871
中西區,太子大廈,太子大廈,22.2811963,114.1592117
中西區,威享大廈,威享大廈,22.2839618,114.1520758
中西區,威豪閣,威豪閣,22.2755112,114.1588195
中西區,安蘭街 Ryota Kappou Modern,Ryota Kappou Modern,22.2806191,114.1568253
中西區,富樂大樓,富樂大樓,22.2862802,114.1508328
中西區,富輝商業中心 聚點坊點心專門店,聚點坊,22.2850628,114.1512299
中西區,寶泰大廈,寶泰大廈,22.285674,114.1483774
中西區,寶翠閣B座,寶翠閣A座,22.2850662,114.1319268
中西區,山頂廣場 麥奀雲吞麵世家,麥奀雲吞麵世家,22.2702037,114.1497838
中西區,山頂廣場 麥當勞,麥當勞,22.2700006,114.1498922
中西區,山頂廣場,山頂廣場,22.2701512,114.1496575
中西區,干諾道西118號,干諾道西118號,22.2882441,114.1445856
中西區,康威花園A座,康威花園,22.287179,114.1497071
中西區,建安商業大廈,建安商業大廈,22.2851131,114.1515672
中西區,怡和大廈,怡和大廈,22.2829926,114.1592393
中西區,怡林閣A座,怡林閣,22.2750148,114.1285206
中西區,恒隆大廈,恆隆大廈,22.2848078,114.1526239
中西區,文華東方酒店 文華廳,香港文華東方酒店,22.2818572,114.1593819
中西區,新景樓 讚記廚房,讚記廚房,22.2863216,114.1334534
中西區,新街市街8號海港酒家 (上環店),海港酒家,22.2872279,114.1498576
中西區,昌泰商業大廈,昌泰商業大廈,22.2863377,114.1515759
中西區,會德豐大廈,會德豐大廈,22.282005,114.1573585
中西區,東南大廈,東南大廈,22.2858311,114.1426697
中西區,東昌大廈,東昌大廈,22.279945,114.1627109
中西區,梁輝臺,半山梁輝臺,22.2806392,114.1522983
中西區,梁輝臺4號,新發樓,22.2804725,114.1522726
中西區,歐陸貿易中心,歐陸貿易中心,22.282815,114.157614
中西區,正街街市,正街街市,22.2863349,114.142031
中西區,歷山大廈,星巴克,22.281453,114.1584445
中西區,永和街和興商業大廈,和興商業大廈,22.2850509,114.1538039
中西區,永安集團大廈,永安集團大廈,22.283883,114.156478
中西區,泰達大廈,泰達大廈,22.2859034,114.151988
中西區,海富中心,海富中心寫字樓1座,22.279499,114.1647831
中西區,海富中心1座,海富中心寫字樓1座,22.279499,114.1647831
中西區,海雅閣,海雅閣,22.2827158,114.1498949
中西區,港鐵中環站,港鐵中環站,22.2818953,114.15746
中西區,港鐵香港站,港鐵香港站,22.284377,114.158056
中西區,環球大廈,環球商場,22.2824934,114.1576903
中西區,畢街11號 長龍食府,長龍食府,22.2853935,114.1513463
中西區,百年大樓,百年大樓,22.281727,114.126033
中西區,石塘咀市政大廈,石塘咀市政大廈(體育館),22.2855473,114.136225
中西區,石板街酒店 Gradini意大利餐廳,Gradini Ristorante E Bar Italiano,22.282862,114.155404
中西區,福陞商場,福陞商場,22.2859808,114.1487032
中西區,科達中心,科達中心,22.2763632,114.1562206
中西區,統一中心,統一中心,22.2784312,114.1654177
中西區,置地廣場,置地廣塲中庭,22.2806759,114.1576919
中西區,置地廣塲 Café Landmark,CAFÉ LANDMARK,22.280545,114.157903
中西區,置地廣塲,置地廣塲中庭,22.2806759,114.1576919
中西區,美暉大廈 新興食家,新興食家,22.2829656,114.1282358
中西區,美菲閣2座,美菲閣2座,22.2820974,114.1277945
中西區,翰林軒1座,翰林軒1座,22.2815797,114.1302563
中西區,聖嘉勒女書院,聖嘉勒女書院,22.272921,114.122049
中西區,聖嘉勒小學,聖嘉勒小學,22.2834736,114.1404319
中西區,聚賢居2座 Classified,Classified,22.283825,114.150762
中西區,聯友新樓 佳記餐廳,佳記餐廳,22.2824096,114.1277172
中西區,聯發商業中心,聯發商業中心,22.2862617,114.1484023
中西區,致生大厦,致生大廈,22.2832469,114.1539733
中西區,華懋廣場II期,華懋廣場Ⅱ期,22.2854598,114.1553218
中西區,華秦國際大廈,華秦國際大廈,22.285652,114.1494405
中西區,華美達海景酒店,華美達海景酒店,22.2869928,114.1435356
中西區,萬安商業大廈,順安商業大廈,22.284352,114.155289
中西區,萬邦行,萬邦行,22.2823835,114.1566154
中西區,蘇杭街88號 球哥燉湯,Souper Authentic,22.2849463,114.1510384
中西區,西園,西園,22.2863681,114.141404
中西區,西浦,西浦,22.2873751,114.1450207
中西區,西營盤社區綜合大樓,西營盤社區綜合大樓,22.2848726,114.1438425
中西區,西營盤街市,西營盤街市,22.285976,114.142421
中西區,西環邨中苑臺,西環邨中苑臺,22.2809938,114.1259366
中西區,誠利商場,誠利商塲,22.285012,114.153821
中西區,豐業大廈,豐業大廈,22.2870918,114.1368598
中西區,豐盛創建大廈 星巴克咖啡,Starbucks,22.2825487,114.1561142
中西區,金寶閣,金寶閣,22.2832875,114.1304886
中西區,金德樓,金德樓,22.2852181,114.1520404
中西區,金鐘道政府合署,金鐘道政府合署,22.277879,114.1645172
中西區,錦甡大廈,錦甡大廈,22.2867527,114.152051
中西區,長庚大廈,長庚大廈,22.27997,114.1535267
中西區,長江集團中心,長江集團中心,22.2794517,114.1606395
中西區,香港大學黃克競樓 Union Restaurant (EAT),Union Restaurant (EAT),22.2831437,114.1365059
中西區,高樂花園3座,高樂花園3座,22.2884171,114.1419613
中西區,鴨巴甸街14號,中環鴨巴甸街14號,22.2837204,114.152746
中西區,麗澤園,麗澤園,22.2823323,114.1443302
中西區,麗賢閣,麗賢閣,22.2850748,114.1410324
中西區,麥當勞道5號,半山麥當勞道5B號,22.275989,114.156396
中西區,龍記大廈 星月樓,星月樓 上環店,22.2867437,114.15177
九龍城,8度海逸酒店,8度海逸酒店,22.3229344,114.1906691
九龍城,One Victory Peko Peko Eatery,Peko Peko Eatery,22.3184686,114.1748441
九龍城,The Argyle 十字冰室,十字冰室,22.3200578,114.1741977
九龍城,世界殯儀館,世界殯儀館,22.3060418,114.1827824
九龍城,中南大廈,中南大廈,22.3231923,114.1883446
九龍城,九龍城市政大廈,九龍城市政大廈,22.329435,114.189164
九龍城,九龍城廣場 大快活,大快活,22.3310853,114.1880556
九龍城,九龍城廣場,九龍城廣場,22.3309857,114.1879624
九龍城,九龍城法院大樓,九龍城裁判法院,22.3250713,114.1852541
九龍城,九龍城道151號,浩明雅苑,22.3208477,114.1899509
九龍城,九龍城道157-159號寶成洋樓,救世軍九龍城家庭支援中心,22.32122,114.190148
九龍城,九龍維景酒店 棕櫚閣西餐廳,棕櫚閣西餐廳,22.3195531,114.1758437
九龍城,九龍總區總部及九龍塘消防局暨救護站,九龍塘消防局暨救護站,22.3346138,114.1826245
九龍城,仁儀苑,仁儀苑,22.319936,114.174726
九龍城,何文田廣場 Itamama,意樂,22.3162929,114.1818049
九龍城,何文田廣場 明星海鮮燒鵝專門店,明星海鮮燒鵝專門店,22.3162573,114.1816366
九龍城,何文田廣場,何文田廣場,22.3162153,114.1817967
九龍城,何文田政府合署,何文田政府合署,22.3146861,114.1802008
九龍城,何文田邨恬文樓,恬文樓,22.3156101,114.1821353
九龍城,何文田邨欣文樓,欣文樓,22.314914,114.181911
九龍城,何文田邨綺文樓,綺文樓,22.316301,114.182616
九龍城,何文田邨適文樓,何文田邨適文樓,22.31494,114.183085
九龍城,侯王道25號,侯王道29號,22.328538,114.188538
九龍城,侯王道25號B,侯王道25號,22.3284821,114.1887224
九龍城,保良局林文燦英文小學,保良局林文燦英文小學,22.3186695,114.1882169
九龍城,信用街6號僑偉大廈,僑偉大廈,22.3109784,114.1850164
九龍城,偉恆昌新村 恆景閣,恆景閣I座,22.3178157,114.1929349
九龍城,偉恆昌新村恆景閣,恆景閣I座,22.3178157,114.1929349
九龍城,偉恆昌新邨偉景閣,恆景閣I座,22.3178157,114.1929349
九龍城,偉恆昌新邨偉景閣J座,恆景閣I座,22.3178157,114.1929349
九龍城,偉恆昌新邨恆景閣,恆景閣I座,22.3178157,114.1929349
九龍城,偉恆昌新邨恆景閣B座,恆景閣I座,22.3178157,114.1929349
九龍城,偉恒昌新邨恒景閣B座,恆景閣I座,22.3178157,114.1929349
九龍城,偉華園,偉華園,22.3264469,114.1811016
九龍城,僑偉大廈,僑偉大廈,22.3109784,114.1850164
九龍城,北帝街67號,基健綜合醫療中心,22.321758,114.18859
九龍城,半島豪庭2座,半島豪庭,22.3044306,114.1847977
九龍城,唯一大廈,唯一大廈,22.3156637,114.1886157
九龍城,啟晴邨康晴樓,啟晴邨康晴樓,22.3318807,114.203245
九龍城,啟朗苑 百份百餐廳,啟朗苑,22.3304798,114.1989104
九龍城,土木工程拓展署大樓,土木工程拓展署大樓,22.3145106,114.1754956
九龍城,土瓜灣大廈 譚仔三哥米線,TamJai SamGor Mixian 譚仔三哥米線,22.3170905,114.1905826
九龍城,土瓜灣定安大廈,定安大廈H座,22.3176162,114.1899605
九龍城,土瓜灣市政大廈暨政府合署,土瓜灣市政大廈暨政府合署,22.3171467,114.1880584
九龍城,土瓜灣立基大廈,立基大廈,22.320793,114.189712
九龍城,土瓜灣街市,土瓜灣街市,22.3172238,114.1880992
九龍城,土瓜灣道100號,中華煤氣公司,22.32025,114.1927027
九龍城,土瓜灣道1號,土瓜灣道1-15號,22.314215,114.1879887
九龍城,土瓜灣道3號,九龍城區環境衛生辦事處,22.3173832,114.1879942
九龍城,土瓜灣道號唯一大廈,九龍城區環境衛生辦事處,22.3173832,114.1879942
九龍城,城南道44號 大德冰室,大德冰室,22.3295191,114.1908715
九龍城,城南道65號後座,後座,22.3301867,114.1908559
九龍城,大利大廈 檀香山茶餐廳,聯發茶餐廳,22.3280666,114.188802
九龍城,大龍樓,大龍樓,22.316448,114.189482
九龍城,天鑄 1 座,天鑄,22.3118621,114.1820435
九龍城,天鑄1座,天鑄,22.3118621,114.1820435
九龍城,天鑄1期7座,天鑄,22.3118621,114.1820435
九龍城,太子道西388-390號,太子道西388號,22.3276231,114.1886902
九龍城,太平花園,太平花園,22.317778,114.174248
九龍城,奧斯酒店,奧斯酒店 O' Hotel,22.316882,114.188499
九龍城,定安大廈 萬豪漁港,萬豪漁港,22.3170919,114.1879353
九龍城,定安大廈,定安大廈H座,22.3176162,114.1899605
九龍城,定安大廈E座,定安大廈H座,22.3176162,114.1899605
九龍城,家維商場,家維商場,22.3082069,114.1846776
九龍城,家維邨 家義樓,日本城,22.3074156,114.1868956
九龍城,家維邨家禮樓,九龍城母嬰健康院,22.3119519,114.1897434
九龍城,家維邨家義樓,日本城,22.3074156,114.1868956
九龍城,家維邨家興樓,家維邨家興樓,22.3082168,114.1846776
九龍城,家維邨家邦樓,家維邨5座家邦樓,22.3083416,114.1868984
九龍城,富豪東方酒店,富豪東方酒店,22.329917,114.1930472
九龍城,富運大廈A座,富運大廈,22.311875,114.186211
九龍城,富高工業中心,富高工業中心 (A 座),22.3100387,114.1898184
九龍城,寰宇殯儀館,寰宇殯儀館,22.3062872,114.1800571
九龍城,寶成洋樓,寶成洋樓,22.3211842,114.1901449
九龍城,寶暉大廈 On The Hill Coffee Bar,On The Hill Coffee Bar,22.3127336,114.1863357
九龍城,寶石戲院大廈A座,紅磡必嘉街103-105號寶石戲院大廈,22.3062886,114.1852434
九龍城,峰景軒,峰景軒,22.318957,114.176309
九龍城,崇廉樓,崇廉樓,22.311372,114.189108
九龍城,嶺南大廈,嶺南大廈,22.3168848,114.1893699
九龍城,工人俱樂部 香港地,工人俱樂部,22.3225543,114.1879771
九龍城,工業貿易大樓,工業貿易大樓,22.3325978,114.1978205
九龍城,常康園,常康園,22.3201158,114.1836542
九龍城,年豐樓 李錦基越南餐廳,李錦基越南餐廳,22.3177837,114.1746938
九龍城,康強大廈,康強大樓,22.334605,114.197196
九龍城,建新中心停車場,建新中心,22.339325,114.180744
九龍城,御‧豪門,御豪門,22.3307466,114.1923742
九龍城,御門．前,御門 • 前,22.3300157,114.1895213
九龍城,御．豪門,御豪門,22.3307466,114.1923742
九龍城,德朗邨德珊樓,德朗邨德珊樓,22.32985,114.2042924
九龍城,德朗邨德琦樓,德朗邨德琦樓,22.3294094,114.203988
九龍城,德朗邨德瑞樓,德朗邨德瑞樓,22.3288432,114.2037094
九龍城,德朗邨德瑩樓,德朗邨德瑩樓,22.3297452,114.2029663
九龍城,德朗邨德璋樓,德朗邨德璋樓,22.3293706,114.2032682
九龍城,德裕閣 甜麥麥麵包西餅,甜麥麥麵包西餅,22.3069137,114.1871963
九龍城,德豐樓,德豐樓,22.3299323,114.1919828
九龍城,怡安閣 呆吉甜屋,怡安閣,22.3205032,114.1745386
九龍城,怡安閣,怡安閣,22.3205032,114.1767273
九龍城,愛民廣場 地道館車仔麵,地道館車仔麵,22.3350724,114.1955562
九龍城,愛民廣場 大快活,大快活,22.3310853,114.1880556
九龍城,愛民廣場 百份百餐廳,Café 100%,22.3123083,114.1763018
九龍城,愛民廣場,愛民廣場,22.311888,114.1768029
九龍城,愛民街市,愛民街市,22.3131634,114.1785755
九龍城,愛民邨保民樓,愛民邨保民樓,22.3117046,114.1797828
九龍城,愛民邨信民樓,愛民邨,22.3124067,114.1788626
九龍城,愛民邨嘉民樓,九龍城區青少年外展社會工作隊,22.312223,114.179887
九龍城,愛民邨新民樓,九龍城區青少年外展社會工作隊,22.312223,114.179887
九龍城,愛民邨衛民樓,愛民邨,22.3124067,114.1788626
九龍城,播道醫院,播道醫院,22.3251652,114.1869162
九龍城,文裕閣,中銀九龍城大樓,22.32875,114.189709
九龍城,新城中心,新成中心,22.279525,114.224628
九龍城,新城中心4座,土瓜灣炮仗街100號新城中心4座,22.3203683,114.1873094
九龍城,新泰大樓,新泰大樓,22.3280556,114.1872222
九龍城,旺德大廈,朋德大廈,22.329672,114.190853
九龍城,昇御商場,昇御商場,22.311211,114.186285
九龍城,昇御門,昇御門2座,22.31097,114.186347
九龍城,春田街福運大廈,中銀九龍城大樓,22.32875,114.189709
九龍城,昭民樓 愛民茶餐廳,昭民樓 愛民茶餐廳,22.3129693,114.1761258
九龍城,晴朗商場 A區,晴朗商場（A區）,22.3315397,114.2029199
九龍城,晴朗商場 太子美食,晴朗商場 太子美食,22.3313787,114.201148
九龍城,晴朗商場 金鳳大餐廳,金鳳大餐廳,22.3310505,114.2028721
九龍城,晴朗商場,晴朗商場,22.3312554,114.2012721
九龍城,東禧閣 越北牛肉粉專門店,越北牛肉粉專門店,22.3068394,114.1859125
九龍城,森麻實道2號,中原地產九龍塘森麻實道分行 Centaline Property Kowloon Tong Somerset Road Branch,22.3376832,114.1788482
九龍城,榮林大廈,榮林大廈,22.312864,114.186131
九龍城,樂民新村樂基樓,樂民新村,22.317201,114.185904
九龍城,樂民新村樂鄰樓,樂民新村樂愛樓,22.314631,114.1866737
九龍城,樂民新邨樂基樓,樂民新村,22.317201,114.185904
九龍城,欣榮花園 富臨皇宮(欣榮店),富臨皇宮,22.321952,114.189374
九龍城,民泰街7號 印尼沙爹屋,印尼沙爹屋,22.3063011,114.187725
九龍城,永和大廈,九龍城市政大廈,22.329435,114.189164
九龍城,沙浦道45號,九龍城沙浦道45號,22.329597,114.192525
九龍城,沙浦道73號,九龍城沙浦道73號,22.330235,114.192564
九龍城,浩明雅苑,浩明雅苑停車場,22.320832,114.189934
九龍城,海濱南岸6座,海濱南岸,22.3033333,114.1863889
九龍城,海濱廣場一座,九龍城區兒童合唱團,22.302271,114.191669
九龍城,海逸豪園20座,海逸豪園,22.3075221,114.1926942
九龍城,海逸豪園23座,海逸豪園,22.3075221,114.1926942
九龍城,海逸豪園3期12A座,海逸豪園悅濤灣12A座,22.308971,114.192679
九龍城,海逸豪園3期悅濤灣8座,海逸豪園悅濤灣12A座,22.308971,114.192679
九龍城,海逸豪園8座,海逸豪園,22.3075221,114.1926942
九龍城,港圖灣,港圖灣,22.3158664,114.1914062
九龍城,源成大廈,源成大厦,22.306606,114.183847
九龍城,溫思勞街19號,紅磡溫思勞街19號,22.307211,114.182449
九龍城,潮樓 翠河餐廳,翠河餐廳,22.3172363,114.190771
九龍城,潮樓,京潮樓,22.3228221,114.1890198
九龍城,煥然壹居H2座,煥然壹居,22.330888,114.2017341
九龍城,獅子石道17號,九龍城獅子石道17號,22.3282026,114.188033
九龍城,獅子石道19-21號 地茂館燒味粥麵餐廳,地茂館燒味粥麵餐廳,22.3281647,114.188012
九龍城,獅子石道45-47號,九龍城獅子石道45號,22.3289883,114.1881194
九龍城,環海．東岸1A座,環海東岸,22.3129244,114.1894282
九龍城,皓畋9座,皓畋,22.3193908,114.1812438
九龍城,益發大廈 永利餐廳,聯發茶餐廳,22.3280666,114.188802
九龍城,碧華花園3座,碧華花園,22.32743,114.183488
九龍城,祥祺中心B座,祥祺中心,22.3008731,114.187764
九龍城,祥祺中心Ａ座,祥祺中心,22.300878,114.1855753
九龍城,福安大廈,福安大廈B座,22.3240367,114.1887833
九龍城,福裕樓,福裕樓,22.3152965,114.1873223
九龍城,福運大廈,中銀九龍城大樓,22.32875,114.189709
九龍城,紅磡市政大廈,紅磡市政大廈體育館,22.3074403,114.1872381
九龍城,紅磡廣場,紅磡廣場,22.3102593,114.1855939
九龍城,紅磡海濱廣場2座,海濱廣場二座,22.3030525,114.19194
九龍城,紅磡海濱廣場二座,海濱廣場二座,22.3030525,114.19194
九龍城,紅磡海逸豪園20座,海逸豪園,22.3075221,114.1926942
九龍城,紅磡邨紅暉樓,紅暉樓,22.3076995,114.1888322
九龍城,紅磡邨紅曜樓,紅磡邨,22.3086271,114.189725
九龍城,紫翠園,杏香園甜品,22.3289902,114.1900882
九龍城,維港中心2座,爍星珠寶首飾有限公司 - 維港中心第二期,22.3101324,114.1915264
九龍城,美景街2號美景樓一期,美景樓一期,22.3161111,114.1908333
九龍城,美東邨美德樓,美東邨美德樓,22.3340724,114.190212
九龍城,義達工業大廈,義達工業大廈,22.3084032,114.1879018
九龍城,翔龍灣1座,翔龍灣,22.3191879,114.1934938
九龍城,翔龍灣3座,翔龍灣,22.3191879,114.1934938
九龍城,翔龍灣5座,翔龍灣,22.3191879,114.1934938
九龍城,翔龍灣廣場 太興,太興,22.3193699,114.1929154
九龍城,翔龍灣廣場,翔龍灣,22.3191879,114.1934938
九龍城,聖德肋撒醫院,聖德肋撒醫院,22.3262591,114.184829
九龍城,聯成大廈 麵.睦月,麵.睦月 Mutsuki,22.305757,114.1861194
九龍城,聯成大廈,聯盛大廈,22.305983,114.186516
九龍城,聯盛大廈龍圖閣,聯盛大廈龍圖閣,22.3061514,114.1865535
九龍城,興仁街1號,興仁街1-31號,22.3194601,114.192511
九龍城,興華大廈,興華大廈,22.3081392,114.1841748
九龍城,萬國殯儀館,萬國殯儀館,22.305997,114.182491
九龍城,蔚景樓G座,蔚景樓,22.3095796,114.181402
九龍城,衙前圍道122號,九龍城衙前圍道122號,22.3290752,114.1883313
九龍城,衛安中心,衛安有限公司,22.3107062,114.190522
九龍城,裕聯大廈,裕聯大廈,22.3277231,114.1871992
九龍城,賈炳達道 61號,九龍城賈炳達道61號,22.3301932,114.1907652
九龍城,賈炳達道61號,九龍城賈炳達道61號,22.3301932,114.1907652
九龍城,金都豪苑 麵麵棧,馬頭涌北帝街58號金都豪苑,22.322352,114.1871701
九龍城,隆基大樓B座,恆勝樓,22.330315,114.188315
九龍城,隆基大樓D座,恆勝樓,22.330315,114.188315
九龍城,雅麗居2座,雅麗居,22.323282,114.1825015
九龍城,露明道4號,露明道4-6號,22.3257706,114.1857595
九龍城,香港九龍維景酒店,香港九龍維景酒店,22.319472,114.175854
九龍城,香港嘉里酒店 Bong– 意大利餐廳,香港嘉里酒店,22.3012921,114.1888343
九龍城,香港房屋委員會總部,房屋委員會總部,22.315401,114.181071
九龍城,香港浸信會醫院,九龍城浸信會,22.3246092,114.1858384
九龍城,香港浸會大學,香港浸會大學逸夫校園,22.337784,114.181564
九龍城,香港電台廣播大廈,香港電台廣播大廈,22.3418021,114.180999
九龍城,馬頭圍道127A號 珍寶豆漿餃子,珍寶豆漿餃子 Jumbo,22.313914,114.187796
九龍城,馬頭圍邨芙蓉樓,民社服務中心「九龍城食物回收助人計劃」聯絡處,22.3235842,114.1866106
九龍城,馬頭涌道68-74號中南大廈,馬頭涌馬頭涌道68號,22.323131,114.1882971
九龍城,馬頭涌道90-93號 龍寶酒家,龍寶酒家,22.3239274,114.1887265
九龍城,馬頭角道63號,牛棚藝術村,22.3208434,114.1915799
九龍城,馬頭角道7號,HKTVmall O2O Shop (土瓜灣馬頭角道),22.3223471,114.1893588
九龍城,黃埔天地 博藝會,ClubONE 博藝會,22.304951,114.190859
九龍城,黃埔天地家居庭,黃埔天地家居庭,22.3058908,114.1911022
九龍城,黃埔天地百合苑商場 大家樂,黃埔新天地百合苑商場,22.302455,114.190402
九龍城,黃埔天地百合苑商場 譚仔三哥米線,譚仔三哥米線,22.3029985,114.1901642
九龍城,黃埔天地金萬年酒家,金萬年酒家,22.3061872,114.190761
九龍城,黃埔新天地百寶坊,黃埔新天地百寶坊,22.304412,114.187148
九龍城,黃埔新天地第5及6期,黃埔花園,22.3047355,114.1902873
九龍城,黃埔新邨景榮樓,黃埔新邨永華樓,22.306497,114.188175
九龍城,黃埔新邨樂貴樓,九龍城,22.3306602,114.1920172
九龍城,黃埔花園 肯德基,肯德基,22.3055811,114.1903981
九龍城,黃埔花園 肯德基家鄉雞,肯德基,22.3055811,114.1903981
九龍城,黃埔花園 麥當勞,麥當勞,22.3049262,114.1878546
九龍城,黃埔花園2期錦桃苑11座,黃埔花園二期錦桃苑4座,22.304772,114.189582
九龍城,黃埔花園3期翠楊苑1座,中原地產九龍昇御門分行 Centaline Property Chatham Gate Branch,22.3041928,114.187568
九龍城,黃埔花園4 期棕櫚苑4 座,黃埔花園,22.3047355,114.1902873
九龍城,黃埔花園4期6座,黃埔花園,22.3047355,114.1902873
九龍城,黃埔花園4期棕櫚苑1座,黃埔花園,22.3047355,114.1902873
九龍城,黃埔花園4期棕櫚苑2座,黃埔花園,22.3047355,114.1902873
九龍城,黃埔花園4期棕櫚苑4 座,黃埔花園,22.3047355,114.1902873
九龍城,黃埔花園4期棕櫚苑6座,黃埔花園棕櫚苑,22.303809,114.188853
九龍城,黃埔花園9期百合苑2座,黃埔花園百合苑,22.303305,114.189651
九龍城,黃埔花園二期17座,黃埔花園二期錦桃苑,22.3040823,114.1888033
九龍城,黃埔花園棕櫚苑 4 期 1座,黃埔花園四期棕櫚苑1座,22.3041987,114.1881771
九龍城,黃埔花園棕櫚苑 6座,黃埔花園棕櫚苑,22.303809,114.188853
九龍城,黃埔花園棕櫚苑1座,黃埔花園四期棕櫚苑1座,22.3041987,114.1881771
九龍城,黃埔花園棕櫚苑4期2座,黃埔花園棕櫚苑,22.303809,114.188853
九龍城,黃埔花園棕櫚苑4期6座,黃埔花園棕櫚苑,22.303809,114.188853
九龍城,黃埔花園棕櫚苑4期棕櫚苑6座,黃埔花園棕櫚苑,22.303809,114.188853
九龍城,黃埔花園棕櫚苑6座,黃埔花園棕櫚苑,22.303809,114.188853
九龍城,黃埔花園百合苑9期2座,黃埔花園百合苑,22.303305,114.189651
九龍城,黃埔花園第四期2座,黃埔花園,22.3047355,114.1902873
九龍城,黃埔花園紅棉苑5座,黃埔花園七期紅棉苑,22.304086,114.192173
九龍城,黃埔花園紫荊苑11期5座,黃埔花園十一期紫荊苑,22.305919,114.190339
九龍城,黃埔花園銀竹苑 3座,黃埔花園十二期銀竹苑2座,22.306041,114.191194
九龍城,黃埔花園銀竹苑 一粥麵,一粥麵,22.3062701,114.1882014
九龍城,黃埔花園錦桃苑14座,黃埔花園二期錦桃苑4座,22.304772,114.189582
九龍城,黃埔花園錦桃苑2期 11座,黃埔花園二期錦桃苑4座,22.304772,114.189582
九龍城,黃埔號,黃埔花園,22.3047355,114.1902873
九龍城,黃埔街18號,黃埔街18號,22.306145,114.184875
九龍城,鼎新大廈,鼎新大廈,22.3182994,114.1898697
九龍城,龍珠商場 七妹美食,龍珠商場,22.327627,114.1857399
九龍城,龍珠商場,龍珠商場,22.3276221,114.1879286
九龍城,龍珠樓,龍珠商場,22.3276221,114.1879286
九龍城,龍翔閣 添財記,添財記粥粉麵咖啡,22.329377,114.1903235
九龍城,龍譽 2B 座,龍譽,22.3280588,114.2006396
九龍城,龍譽1B座,龍譽,22.3280588,114.2006396
九龍城,龍譽2B座,龍譽,22.3280588,114.2006396
元朗,交通廣場 百份百餐廳,百分百餐廳,22.4436659,114.0321195
元朗,俊宏軒1座,俊宏軒1座,22.4687684,114.0005291
元朗,俊宏軒4座,俊宏軒4座,22.4696225,114.0013422
元朗,偉記燒烤樂園,偉記元朗燒烤樂園,22.4345459,114.0315261
元朗,元崗村,元崗村,22.428007,114.077179
元朗,元政路12號,元朗元政路12號,22.4425945,114.0384871
元朗,元朗商業中心,元朗商業中心,22.4431631,114.0279409
元朗,元朗安寧路順興樓,順興樓,22.4457579,114.0295133
元朗,元朗廣場 牛一,牛一(元朗廣場分店),22.4448534,114.0238525
元朗,元朗廣場 麥當勞,McDonald’s,22.444916,114.023602
元朗,元朗廣場,元朗廣場,22.4448907,114.0239001
元朗,元達樓 樂怡美食店,樂怡美食店,22.4428421,114.0245726
元朗,兆豐樓,兆豐樓,22.443179,114.0261755
元朗,光華廣場,光華廣場,22.443949,114.029332
元朗,八鄉田心村,八鄉田心村公廁,22.42362,114.069617
元朗,利景樓 嘉麗園潮州粉麵餐廳,嘉麗園粉麵,22.444046,114.0274887
元朗,加州花園會所,加州花園,22.486816,114.053725
元朗,加州花園紅花徑,新田紅花徑,22.487752,114.050281
元朗,勤業樓,勤業樓,22.4447471,114.0249443
元朗,南坑村,南坑村,22.42415,114.03217
元朗,合益商場,Hop Yick Commercial Centre,22.4423952,114.0300635
元朗,合益廣場,合益廣場,22.4431839,114.0291977
元朗,合益街市,合益街市,22.443742,114.029911
元朗,同樂街22號,元朗同樂街22號,22.4456358,114.0281166
元朗,同益大廈,同益大廈,22.4440641,114.0288701
元朗,同益街市,同益街市,22.4436245,114.0301514
元朗,唐人新村路1號 唐,唐,22.4418735,114.0091352
元朗,嘉城大廈,嘉城大廈,22.4427437,114.0272542
元朗,嘉湖山莊樂湖居10座,嘉湖山莊樂湖居10座,22.4522263,113.9995766
元朗,嘉湖山莊樂湖居6座,嘉湖山莊樂湖居,22.4512595,114.0012607
元朗,嘉湖山莊翠湖居1座,嘉湖山莊翠湖居1座,22.4574914,113.9990903
元朗,嘉湖新北江商場,嘉湖新北江商場,22.4522537,114.0004029
元朗,嘉湖海逸酒店,嘉湖海逸酒店,22.4581069,114.0029806
元朗,坑尾村,坑尾村站,22.445572,114.0051925
元朗,塘坊村,塘坊村,22.4400592,114.0070215
元朗,塘坊村8號,屏山傳統盆菜,22.4437725,114.007266
元朗,塘頭埔村,塘頭埔村,22.425595,114.038241
元朗,壆圍村,壆圍村,22.465756,114.052627
元朗,大旗嶺,大旗嶺,22.4384818,114.0282848
元朗,大棠村,大棠村,22.417445,114.023785
元朗,大棠道熟食市場,大棠路熟食市場,22.4436245,114.0284752
元朗,大橋村,大橋村,22.447236,114.027354
元朗,大橋街市,元朗政府合署暨大橋街市,22.4455556,114.0269444
元朗,大江埔,大江埔,22.449711,114.076693
元朗,大生圍攸壆路,攸壆路,22.4708358,114.0488855
元朗,天一商城,天一商城,22.4647433,114.0030365
元朗,天富苑榮富閣,榮富閣,22.4646412,113.9982178
元朗,天恒邨恒健樓,天恒邨恒健樓,22.4696862,113.9985777
元朗,天恒邨恒翠樓,天恒邨恒翠樓,22.4716812,114.0007382
元朗,天恒邨恒通樓,天恒邨,22.4693292,113.9994605
元朗,天恩商場,天恩商場,22.462506,113.996396
元朗,天恩邨恩福樓,天恩邨恩福樓,22.4641161,113.9968121
元朗,天恩邨恩穗樓,天恩邨恩穗樓,22.4632879,113.9954183
元朗,天悅邨悅華樓,天悅邨悅華樓,22.4628632,113.9997857
元朗,天慈邨天麗苑,天慈邨,22.452839,114.0082487
元朗,天慈邨慈恩樓,天慈邨慈恩樓,22.4522541,114.0073125
元朗,天晴商場 美心MX,美心MX,22.4623345,114.0036939
元朗,天晴邨晴喜樓,天晴邨晴喜樓,22.4639359,114.0051753
元朗,天晴邨晴悅樓,天晴邨晴悅樓,22.4633976,114.0052682
元朗,天晴邨晴雲樓,天晴邨晴雲樓,22.463103,114.003853
元朗,天澤服務設施大樓,明愛元朗長者社區中心(天澤中心),22.466787,113.997321
元朗,天澤邨澤星樓,天澤邨,22.4672846,113.9975793
元朗,天澤邨澤輝樓,天澤邨,22.4672846,113.9975793
元朗,天瑞二邨瑞豐樓,天瑞(二)邨9座瑞豐樓,22.4550679,113.9971838
元朗,天瑞廣場 大師傅粥品,大師傅粥品,22.455774,113.9986296
元朗,天瑞街市,天瑞街市,22.4566313,113.9984911
元朗,天瑞邨瑞國樓,天瑞(一)邨6座瑞國樓,22.4567697,113.9974626
元朗,天瑞邨瑞心樓,天瑞(一)邨2座瑞心樓,22.4567269,113.9960687
元朗,天瑞邨瑞泉樓,天瑞(一)邨3座瑞泉樓,22.4569884,113.9966263
元朗,天盛商場,天盛商場,22.4488023,114.0028987
元朗,天盛苑盛亨閣,天盛苑L座盛亨閣,22.4489987,113.9998371
元朗,天盛苑盛彩閣,天盛苑A座盛彩閣,22.4480296,114.002659
元朗,天盛苑盛譽閣,天盛苑P座盛譽閣,22.4485778,114.0012725
元朗,天盛苑盛賢閣,天盛苑D座盛賢閣,22.4479376,114.0014584
元朗,天耀(二)邨耀昌樓,天耀(二)邨11座耀昌樓,22.451559,114.003238
元朗,天耀(二)邨耀隆樓,天耀(二)邨10座耀隆樓,22.451316,114.003986
元朗,天耀一邨耀逸樓,耀逸樓,22.4499146,114.0050256
元朗,天耀二邨耀華樓,天耀(二)邨6座耀華樓,22.452185,114.005345
元朗,天耀廣場,天水圍天耀路天耀廣場,22.450916,114.0011746
元朗,天耀邨耀泰樓,天耀(二)邨9座耀泰樓,22.4524892,114.0035956
元朗,天耀邨耀澤樓,天耀(二)邨8座耀澤樓,22.4528234,114.0042461
元朗,天耀邨耀逸樓,耀逸樓,22.4499146,114.0050256
元朗,天逸邨逸浪樓,天逸邨逸浪樓,22.4671536,114.0008079
元朗,天逸邨逸湖樓,天逸邨逸湖樓,22.4662962,113.9995999
元朗,天逸邨逸灣樓,天逸邨逸灣樓,22.4662958,114.0001574
元朗,天頌苑頌波閣,天頌苑K座頌波閣,22.4607407,113.9977414
元朗,天頌苑頌流閣,天頌苑C座頌流閣,22.4604374,114.0000877
元朗,天頌苑頌琴閣,天頌苑N座頌琴閣,22.4613652,113.9993211
元朗,好景洋樓,好景洋樓,22.4420548,114.0316577
元朗,好順景大廈1座,好順景大廈1座,22.4420205,114.0336786
元朗,安榮樓,安榮樓,22.4459073,114.0292186
元朗,宏豐大廈,宏豐大廈,22.4440144,114.030858
元朗,屏山坑頭村,坑頭村,22.445566,114.00909
元朗,屏欣苑屏彥閣,屏欣苑,22.4455411,114.0034577
元朗,山貝村,山貝村,22.449238,114.033575
元朗,峻巒1A期11A座,峻巒,22.4512757,114.0533427
元朗,峻巒1B期7B座,峻巒,22.4512757,114.0533427
元朗,幸福樓1期,幸福樓,22.4469365,114.021198
元朗,康德閣,康德閣,22.4428566,114.0293347
元朗,建業街聯發洋樓,聯發洋樓,22.4424185,114.0315648
元朗,形點 I Pizza Express,PizzaExpress,22.4432583,114.0362091
元朗,形點 I,形點II,22.4457587,114.0352248
元朗,形點 II Oliver's Super Sandwiches,Oliver's Super Sandwiches,22.4456852,114.0343881
元朗,形點 Pizza Express,PizzaExpress,22.4432583,114.0362091
元朗,形點I,形點II,22.4457587,114.0352248
元朗,形點II 茶木,TeaWood Taiwanese Cafe & Restaurant,22.445391,114.0351247
元朗,形點二期 茶木,TeaWood Taiwanese Cafe & Restaurant,22.445391,114.0351247
元朗,悅品天秀酒店.元朗,悦品天秀酒店 元朗,22.4647615,114.0027354
元朗,悅品天秀酒店．元朗,悦品天秀酒店 元朗,22.4647615,114.0027354
元朗,振興新村,振興新村91座,22.446427,114.01736
元朗,攸壆路,元朗攸壆路,22.4677399,114.0400022
元朗,教育路 麗聲冰室,麗聲冰室,22.4430486,114.0235766
元朗,斌逸雅苑12座,駿逸雅苑,22.4310447,114.0283762
元朗,新元朗中心,新元朗中心,22.444645,114.034954
元朗,新時代中城2座,新時代中城,22.444244,114.034926
元朗,新時代廣場8座,中原地產 - 元朗新時代廣場第三分行,22.44385,114.033596
元朗,昌盛大廈,昌盛大廈,22.442147,114.0301013
元朗,朗善邨善愛樓,朗善邨善愛樓,22.441767,114.0451306
元朗,朗屏8號3座,朗屏8號,22.4484027,114.0268483
元朗,朗屏商場 麥當勞,麥當勞(元朗朗屏分店),22.4506196,114.0228325
元朗,朗屏商場,朗屏商場,22.4502264,114.0232217
元朗,朗屏邨喜屏樓,朗屏邨喜屏樓,22.4490375,114.022591
元朗,朗屏邨燕屏樓,朗屏邨燕屏樓,22.4500461,114.0247397
元朗,朗屏邨珠屏樓,朗屏邨珠屏樓,22.4513581,114.0242474
元朗,朗屏邨畫屏樓,朗屏邨畫屏樓,22.4497627,114.0225264
元朗,朗屏邨賀屏樓,朗屏邨賀屏樓,22.4487052,114.0240749
元朗,東鎮圍,東鎮圍,22.501166,114.075056
元朗,柏慧豪園1座,栢慧豪園,22.45926,114.001031
元朗,柏慧豪園5座,栢慧豪園5座,22.4593751,114.0007382
元朗,柏雨花園12座,柏雨花園12座,22.4325023,113.9938037
元朗,柏雨花園16座,柏雨花園16座,22.4323748,113.994338
元朗,柏麗豪園6座,柏麗豪園,22.439482,114.01729
元朗,橫台山永寧里,橫台山永寧里,22.44166,114.09664
元朗,橫洲福慶村,橫洲福慶村,22.454763,114.02396
元朗,水流田村,水流田村,22.431633,114.083693
元朗,水蕉新村,水蕉新村,22.422452,114.030058
元朗,水邊圍邨山水樓,水邊圍邨,22.4454796,114.0200642
元朗,水邊圍邨湖水樓,水邊圍邨湖水樓,22.4456664,114.0210417
元朗,水邊村,水邊村,22.4439615,114.020368
元朗,永泰樓,永泰樓,22.4427108,114.0251301
元朗,洪水橋田心村,洪水橋田心村公所,22.434728,113.9922073
元朗,洪福商場 麥當勞,麥當勞(元朗洪福商場分店),22.43608,113.997402
元朗,洪福邨洪昌樓,Hung Cheong House Hung Fuk Estate,22.4385286,113.9969051
元朗,洪福邨洪樂樓,洪福邨洪樂樓,22.4373061,113.9980202
元朗,洪福邨洪盛樓,洪福邨洪盛樓,22.4379394,113.9970444
元朗,深圳灣出入境管制站,深圳灣管制站,22.499256,113.944533
元朗,溱柏9座,溱柏,22.4363004,114.0247778
元朗,田心村,石崗田心村,22.4230608,114.0699786
元朗,白沙村,白沙村,22.424387,114.022282
元朗,石塘村,石塘村,22.436536,114.045591
元朗,福宏街8號,信昌機器工程有限公司,22.4595642,114.0249211
元朗,米埔合和魚塘,米埔,22.4950569,114.0339342
元朗,紅棗田村,紅棗田村,22.42568,114.031055
元朗,紫荊樓二期,紫荊樓二期,22.4462793,114.0231091
元朗,紫荊樓第二期,Colour Group hair salon,22.446288,114.023063
元朗,翠韻華庭2座,翠韻華庭2座,22.4399546,114.0200428
元朗,臨時鮮魚批發市場,元朗魚市場,22.4438549,114.0379401
元朗,興發大樓 麥當勞,麥當勞,22.4428639,114.0278111
元朗,舊李屋村,舊李屋村,22.441155,113.991465
元朗,蝦尾新村路 華嫂冰室,華嫂冰室,22.4517424,114.0112078
元朗,蝶翠峰2座,蝶翠峰2座,22.4358266,114.0314486
元朗,蝶翠峰3座,蝶翠峰3座,22.4357105,114.0310769
元朗,裕景坊11號,興發樓,22.4433629,114.0281965
元朗,豐興樓,豐興樓,22.443097,114.027507
元朗,酒街,元朗酒街,22.4479031,114.0334001
元朗,采葉庭3座,采葉庭3座,22.4504856,114.0328424
元朗,采葉庭5座,采葉庭5座,22.4503035,114.0331676
元朗,金朗大廈 爭鮮迴轉壽司,爭鮮迴轉壽司 Sushi Express,22.4422469,114.0290814
元朗,錦上路謝屋村,錦上路,22.4282114,114.0834289
元朗,錦安花園40座,錦安花園,22.4369975,114.0653741
元朗,錦田戲院大廈,高寶地產(香港)有限公司,22.440245,114.064508
元朗,錦田街市,錦田街市,22.439965,114.065084
元朗,錫降村,錫降村,22.449749,113.99183
元朗,雅珊園 德福海鮮酒家,德福海鮮酒家,22.4340575,113.9965909
元朗,青山公路 - 元朗段 實惠,實惠,22.4573104,114.0038305
元朗,青山公路元朗段21號,元美大廈,22.4446402,114.0314486
元朗,香港駕駛學院 元朗安全駕駛中心,香港駕駛學院 元朗安全駕駛中心,22.4536284,114.0317285
元朗,馬田村,馬田村,22.4404787,114.0239453
元朗,魚類批發市場,元朗鮮魚行商會,22.443735,114.038104
元朗,鳳池村,鳳池村,22.44818,114.019772
元朗,鴻發大樓,鴻發大樓,22.4428897,114.0241313
元朗,鴻運中心,鴻運中心,22.442555,114.0332337
元朗,黃屋村210號栢譽,栢譽,22.4467593,114.038292
北區,上水中心購物商場,中國銀行（香港）彩園商場,22.5011182,114.1260535
北區,上水圍,上水圍上北村公廁,22.510582,114.125547
北區,上水屠房,上水屠房,22.5134561,114.1173666
北區,上水廣場,上水廣場,22.5025848,114.1279107
北區,上水滙,上水匯,22.5031152,114.1279402
北區,劍橋廣場,劍橋廣場停車場,22.506724,114.122238
北區,北區運動場,北區運動場,22.5063119,114.1305155
北區,古洞燕崗村,燕崗村,22.504387,114.111056
北區,唐公嶺,唐公嶺,22.487601,114.108615
北區,嘉福邨商場,嘉福商場,22.4934415,114.1355732
北區,嘉里貨倉 (上水),嘉里貨倉（上水）,22.5075756,114.1214542
北區,大元村,大元村,22.509368,114.12554
北區,大元村新一巷3號,莆上村新一巷3號,22.5080809,114.1212323
北區,天平邨天怡樓,天平邨天怡樓,22.5046526,114.1318438
北區,天平邨天明樓,天平邨天明樓,22.5025593,114.1335774
北區,天平邨天祥樓,天平邨天祥樓,22.5039833,114.1317184
北區,天平邨天美樓,天平邨天美樓,22.5016284,114.133949
北區,孔嶺,孔嶺村,22.5145665,114.167522
北區,富榮大廈,富榮大廈,22.5049619,114.1295596
北區,寶石湖邨紫晶樓 2座,寶石湖邨,22.5033726,114.1244286
北區,尼斯花園22座,尼斯花園,22.4912067,114.1005029
北區,帝庭軒2座,帝庭軒購物商場,22.5003493,114.1437134
北區,帝庭軒購物商場 大快活,大快活,22.5007975,114.1442837
北區,廣新行貨倉,廣新行貨倉有限公司（第四倉）,22.496579,114.146083
北區,張知行大廈 海港酒家,海港酒樓,22.5044917,114.1267215
北區,彩園廣場 九份•十分,九份十分,22.501342,114.126446
北區,彩園廣場 大家樂,大家樂,22.5033698,114.1264664
北區,彩園廣場 麥當勞,麥當勞,22.5005251,114.1261684
北區,彩園廣場,彩園商場,22.5014606,114.1264366
北區,彩園邨彩屏樓,彩園邨,22.5019707,114.126513
北區,彩園邨彩湖樓,彩園邨彩湖樓,22.5006282,114.124845
北區,彩園邨彩華樓,彩華樓,22.4998273,114.1265198
北區,御林皇府,御林皇府,22.499752,114.1105347
北區,慧雯花園,慧雯花園,22.503997,114.112207
北區,文閣村,上水圍文閣村九房停車場,22.5125929,114.1251434
北區,新健街19號,上水新健街19號,22.5056767,114.1277715
北區,新屋嶺村,新屋嶺練靶場,22.53134,114.128953
北區,新成路107號 皇牌冰室,冰室,22.5044692,114.1297106
北區,新都廣場,新都廣場,22.5020666,114.1292796
北區,旭埔苑清湖閣,旭埔苑清湖閣,22.5006495,114.1270514
北區,昌盛苑昌潤閣,昌盛苑D座昌潤閣,22.4835807,114.1388726
北區,昌盛苑昌靖閣,昌盛苑A座昌靖閣,22.4836553,114.1378507
北區,景盛苑賢景閣,景盛苑賢景閣,22.4877048,114.1409163
北區,松柏塱,Tsung Pak Long,22.500895,114.1182555
北區,榮福中心2座,榮福中心,22.5011199,114.1415615
北區,榮輝中心,榮輝中心,22.5017681,114.1435336
北區,榮輝中心1座,榮輝中心1座,22.5015246,114.1423097
北區,榮輝中心商場,榮輝中心商場,22.5011882,114.1423046
北區,永寧村,永寧籃球場,22.5009877,114.1511485
北區,沙頭角公路 龍躍頭段18號,粉嶺沙頭角公路龍躍頭段18號,22.4980069,114.1442837
北區,沙頭角農莊,沙頭角農莊,22.538962,114.2131527
北區,海聯廣場 麥當勞,海聯廣場商場,22.500198,114.141608
北區,清河邨清朗樓,清河邨清朗樓,22.4930677,114.125774
北區,清河邨清潤樓,清河邨清潤樓,22.49359,114.1263314
北區,港鐵粉嶺站 MX,美心,22.4920749,114.1388344
北區,港鐵粉嶺站 美心MX,美心,22.4920749,114.1388344
北區,港鐵粉嶺站 美心西餅,美心餅店,22.4856402,114.1408238
北區,石湖墟市政大廈,石湖墟市政大廈,22.502011,114.130402
北區,祥華邨祥景樓,祥華邨祥景樓,22.4927783,114.1423329
北區,祥華邨祥順樓,祥華邨祥順樓,22.4928938,114.1427045
北區,祥龍薈 大家樂,大家樂,22.4949884,114.1236619
北區,粉嶺一號橋,聯大地産,22.4996171,114.1400002
北區,粉嶺中心 翠河餐廳,翠河餐廳,22.4907167,114.1408665
北區,粉嶺中心,粉嶺名都,22.4929319,114.1389987
北區,粉嶺名都商場 大家樂,大家樂,22.492674,114.138832
北區,粉嶺名都商場 海皇粥店,Ocean Empire,22.4928076,114.1390885
北區,粉嶺名都商場,粉嶺名都,22.4929319,114.1389987
北區,粉嶺名都富臨閣,粉嶺名都富臨閣,22.49297,114.1390583
北區,粉嶺圍,粉嶺圍,22.497335,114.135187
北區,粉嶺神召會幼稚園,粉嶺神召會幼稚園,22.495548,114.140315
北區,綠悠軒5座,綠悠軒5座,22.5015235,114.1446553
北區,翠麗花園 2 座,翠麗花園,22.5078859,114.1294971
北區,翠麗花園1座,翠麗花園1座,22.5080653,114.1295132
北區,翠麗花園2座,翠麗花園2座,22.5082913,114.129188
北區,聯和墟市政大廈,聯和墟街市及熟食中心,22.4997106,114.1444967
北區,聯和墟街市及熟食中心,聯和墟街市及熟食中心,22.4997106,114.1444967
北區,聯和市場,聯和市場,22.497868,114.142784
北區,花都廣場 九龍冰廳,九龍冰廳,22.4847379,114.1415815
北區,花都廣場,花都廣場,22.4854804,114.141195
北區,花都廣場7座,花都廣場,22.4854804,114.141195
北區,莆上村,莆上村,22.508527,114.123907
北區,華山村,華山村,22.516675,114.13401
北區,華心邨華勉樓,華勉樓,22.4857642,114.1432929
北區,華明商場 皇庭匯,皇庭匯（ 粉嶺店）,22.4839188,114.1414234
北區,華明商場,華明商場,22.4839515,114.1410948
北區,華明邨信明樓,華明邨信明樓,22.4845167,114.1402989
北區,華明邨信明樓地下及一樓一號,華明邨信明樓,22.4845216,114.1381102
北區,華明邨禮明樓,華明邨1座禮明樓,22.4853081,114.1400802
北區,華明邨耀明樓,華明邨耀明樓,22.4824137,114.1414465
北區,華明邨頌明樓,華明邨5座頌明樓,22.4827927,114.1405447
北區,蓬瀛仙館,蓬瀛仙館,22.4904111,114.1384894
北區,行樂坊,行樂坊,22.5042303,114.1266159
北區,金誠樓 麥當勞,金誠樓+麥當勞,22.5042549,114.1200498
北區,雍盛苑雍華閣,雍盛苑雍華閣,22.4816369,114.1368288
北區,雍盛苑雍萃閣,雍盛苑,22.4824191,114.1372606
北區,雞嶺村,雞嶺村公廁,22.4939593,114.1291514
北區,順欣花園 小廚知味,小廚知味,22.5015395,114.132034
北區,順欣花園,順欣花園,22.501595,114.132054
北區,香港浸會園,香港浸會園,22.5222012,114.1633022
北區,香港耀能協會賽馬會白普理華心護康中心,香港耀能協會賽馬會白普理華心護康中心,22.4857816,114.1434129
北區,馬尾下嶺咀,馬尾下,22.516962,114.172522
北區,馬尾下村,馬尾下村,22.517898,114.176737
北區,馬會道164號 新天地茶餐廳,新天地餐廳,22.5045841,114.1278516
北區,龍琛路16號,上水龍琛路16號,22.503716,114.12973
北區,龍豐花園 唐記包點,龍豐花園,22.5030709,114.1272403
北區,龍豐花園 稻香,稻香超級漁港,22.5032162,114.1297871
北區,龍豐花園A座,龍豐花園A座,22.5030936,114.1297919
北區,龍豐花園商場 豐泰牛雜專家,豐泰牛雜專家,22.5030725,114.1296909
北區,龍豐花園商場,龍豐花園商場,22.5027656,114.129665
南區,利東邨東安樓,利東邨東安樓,22.2406418,114.156987
南區,利東邨東昇樓,利東邨東昇樓,22.241485,114.1566154
南區,南濤閣1座,南濤閣1座,22.2444541,114.1658813
南區,嘉隆苑嘉俊閣,嘉隆苑C座嘉俊閣,22.2493471,114.1380172
南區,數碼港商場 麥當勞,麥當勞,22.2617052,114.1303727
南區,東華三院賽馬會復康中心B座,東華三院賽馬會復康中心,22.2466578,114.1636524
南區,東華三院賽馬會松朗安老綜合中心,TWGHs Jockey Club Sunshine Complex for the Elderly 東華三院賽馬會松朗安老綜合中心,22.243891,114.166154
南區,海怡半島4期26座,海怡半島四期26座御盈居,22.242714,114.1497645
南區,海龍閣,香港仔中心海龍閣,22.2481762,114.1538518
南區,深灣9號8座,深灣9號第八座,22.2457417,114.1640699
南區,港怡醫院,港怡醫院,22.2515672,114.1763966
南區,漁光村順風樓,漁光邨順風樓,22.2509464,114.1568941
南區,漁安苑碧安閣,漁安苑碧安閣,22.2429963,114.156987
南區,田灣邨田麗樓,田灣邨田麗樓,22.2524909,114.1515063
南區,石排灣商場,石排灣商場,22.248788,114.1570334
南區,石排灣邨碧園樓,石排灣邨5座碧園樓,22.2493759,114.1580088
南區,石排灣邨碧月樓,石排灣邨2座碧月樓,22.248953,114.157267
南區,石排灣邨碧綠樓,石排灣邨7座碧綠樓,22.2486203,114.157823
南區,置富南區廣場 必勝客,必勝客,22.258305,114.138783
南區,美利樓 帝樂 - 德國餐廳,King Ludwig Beerhall,22.2178292,114.2098047
南區,美利樓 帝樂-德國餐廳,King Ludwig Beerhall,22.2178292,114.2098047
南區,華富(一)邨華光樓,華富(一)邨華光樓,22.2497782,114.1372701
南區,華富(一)邨華樂樓,華富(一)邨華樂樓,22.2515544,114.1385939
南區,華富(二)邨商場,華富（二）邨商場,22.2532876,114.136163
南區,華富(二)邨華泰樓,華富(二)邨華泰樓,22.2519225,114.1366663
南區,華富(二)邨華翠樓,華富(二)邨華翠樓,22.2538524,114.1361786
南區,華富1邨華光樓,華富(一)邨華光樓,22.2497782,114.1372701
南區,華富村商業中心,華富邨,22.2525,114.1363889
南區,華富邨(二)華翠樓,華富邨華翠樓,22.254018,114.136384
南區,華富邨華泰樓,華富邨華泰樓,22.251745,114.136285
南區,華富邨華翠樓,華富邨華翠樓,22.254143,114.136462
南區,薄扶林村,薄扶林村,22.260147,114.136859
南區,西安街4號,香港仔西安街4-2號,22.2488117,114.1556503
南區,香港仔中心海龍閣 南駅,南駅 Hainan South,22.248109,114.1540374
南區,香港仔中心海龍閣,香港仔中心海龍閣,22.2481762,114.1538518
南區,香港仔大道198-200號 果然冰室,冰室,22.2497451,114.1549665
南區,香港大學大學堂宿舍,香港大學大學堂,22.2635104,114.1352124
南區,香港瑞思酒店,香港瑞思酒店,22.2499239,114.1476247
南區,黃竹坑南朗山道29號,黃竹坑南朗山道29號,22.2438871,114.16616
大埔,下黃宜坳,黃宜坳,22.442845,114.17692
大埔,元嶺村,大埔元嶺村士多,22.4755285,114.1556203
大埔,匡智會總辦事處,匡智會 總辦事處,22.4621351,114.173043
大埔,塘面村,塘面村,22.451568,114.137453
大埔,大元商場 薩莉亞意式餐廳,薩莉亞,22.4543744,114.1679106
大埔,大元商場,大元商場,22.4540363,114.1678824
大埔,大元街市 薩莉亞意式餐廳,薩莉亞,22.4543744,114.1679106
大埔,大元街市,Tai Yuen Market,22.4539486,114.167639
大埔,大元邨泰樂樓,大元邨泰樂樓,22.4557911,114.1695273
大埔,大南樓,大南樓,22.453072,114.164742
大埔,大埔中心19座,大埔中心19座,22.4535214,114.1719292
大埔,大埔中心1座,大埔中心1座,22.4524695,114.1686031
大埔,大埔中心1期1座,大埔中心,22.4516729,114.1692843
大埔,大埔中心一期1座,大埔中心,22.4516729,114.1692843
大埔,大埔廣場 爭鮮迴轉壽司,爭鮮迴轉壽司 Sushi Express,22.452909,114.170445
大埔,大埔廣場宜德閣,大埔廣場宜德閣,22.4528498,114.1704804
大埔,大埔綜合大樓,綜合大樓,22.4620689,114.1749322
大埔,大埔超級城 Cafe Polanka,Cafe Polanka,22.4517353,114.1710759
大埔,大埔超級城,大埔超級城,22.4525939,114.1689861
大埔,大埔超級城A區,大埔超級城A區,22.452203,114.169229
大埔,大埔超級城B區,大埔超級城B區,22.4515952,114.1701318
大埔,大宏街1-3號,大埔工業邨大宏街1-3號,22.4585496,114.1815563
大埔,太和廣場 麥當勞,麥當勞,22.4501232,114.1609199
大埔,太和廣場,太和廣場,22.4506851,114.1607491
大埔,太和邨亨和樓,太和邨12座亨和樓,22.4519096,114.1626534
大埔,太和邨愛和樓,愛和樓,22.451154,114.162297
大埔,太湖花園3座,太湖花園3座,22.4537993,114.1604936
大埔,奇華生產中心,奇華生產中心,22.461411,114.189444
大埔,宏福苑宏新閣,宏福苑宏新閣,22.4467079,114.1752632
大埔,宏福苑宏盛閣,宏福苑宏盛閣,22.4468512,114.1762849
大埔,富亨商場,富亨商場,22.4580885,114.171271
大埔,富亨邨亨昌樓,富亨邨3座亨昌樓,22.4570232,114.1711064
大埔,富善邨善美樓,富善邨善美樓,22.4548922,114.1757508
大埔,富善邨善翠樓,富善邨善翠樓,22.4538991,114.1763778
大埔,寶湖道街市,寶湖道街市,22.4493558,114.1679823
大埔,寶雅苑家和閣,寶雅苑C座家和閣,22.4515093,114.1591235
大埔,寶雅苑興和閣,寶雅苑B座興和閣,22.4506961,114.1587519
大埔,帝欣苑30座,帝欣苑30座,22.4537867,114.1556168
大埔,康樂園康樂園第十一街,康樂園康樂園第十一街,22.4626714,114.1557371
大埔,康樂園康樂西路,康樂園康樂西路,22.4622713,114.1527999
大埔,廣福商場,廣福商場,22.4485664,114.1741257
大埔,廣褔邨廣祐樓,廣福邨廣祐樓,22.4479733,114.1747058
大埔,慈山寺,慈山寺,22.474148,114.205792
大埔,新峰花園19座,新峰花園,22.4419365,114.1609344
大埔,新達廣場 6 座,新達廣場6座,22.4440501,114.1687841
大埔,新達廣場 大家樂,大家樂,22.443554,114.169348
大埔,新達廣場 敏華冰廳,敏華冰廳,22.443827,114.168677
大埔,新達廣場 麥當勞,麥當勞,22.4435897,114.1697821
大埔,新達廣場6座,新達廣場6座,22.4440501,114.1687841
大埔,昌運中心 苑記粉麵茶餐廳,苑記粉麵茶餐廳,22.4521985,114.1684582
大埔,昌運中心 麥當勞,麥當勞,22.4527546,114.168435
大埔,昌運中心,大埔昌運中心,22.4526077,114.1680178
大埔,昌運中心商場 Here,昌運中心商場,22.4524409,114.1680317
大埔,昌運中心商場 麥當勞,麥當勞,22.4527546,114.168435
大埔,昌運中心商場,大埔昌運中心,22.4526077,114.1680178
大埔,東昌街2號 Homeland,Homeland.kitchen,22.4480096,114.169541
大埔,榮暉花園商場 明星皇宮,明星皇宮,22.45339,114.1655562
大埔,汀角村,汀角村,22.473349,114.219125
大埔,汀角樓,汀角樓,22.4523951,114.1652311
大埔,汀角路下坑,汀角路,22.4599724,114.2009744
大埔,汀角路下坑村,下坑村公廁,22.462748,114.186001
大埔,汀角路第6約1211S.D.地段大南樓,康和護老中心 - 大埔,22.453045,114.164791
大埔,汀角路第6約1211S.D.地段大南樓地下A、B、C、D及E舖及四樓A室,康和護老中心 - 大埔,22.453045,114.164791
大埔,海日灣海曦閣B2,海日灣 The Horizon,22.4302211,114.2074882
大埔,獅子石道17號,慧田寺服務公司,22.328162,114.187954
大埔,粵發大廈 象月-泰式休閒餐廳,象月 Da Moon,22.4534494,114.164906
大埔,美心食品廠,美心食品廠,22.4597584,114.184645
大埔,翠樂街8號 ,富萊花園一期金棠閣,22.4536243,114.1646273
大埔,翠樂街8號 杰昌車行有限公司,大埔翠樂街8號,22.4539188,114.162587
大埔,翠樂街8號,富萊花園一期金棠閣,22.4536243,114.1646273
大埔,荔枝山村,荔枝山,22.438383,114.164849
大埔,西澳村,西澳村大榕樹停車場,22.4299614,114.2536115
大埔,逸瓏灣Ｉ19座,逸瓏灣二期,22.4314542,114.2052734
大埔,運頭塘商場,運頭塘商場,22.44207,114.167149
大埔,運頭塘邨運亨樓,運頭塘邨運亨樓,22.441876,114.165302
大埔,運頭塘邨運來樓,運來樓,22.442696,114.1687461
大埔,運頭塘邨運臨樓,運頭塘邨2座運臨樓,22.44229,114.168221
大埔,錦山村181號,大埔錦山村,22.4481,114.159116
大埔,麗和閣,麗和閣,22.452458,114.164903
大埔,龍尾村,龍尾村,22.47291,114.228474
屯門,The Parkville 味千拉麵,味千拉麵,22.3873114,113.9761494
屯門,V City 羅麥記,羅麥記,22.3960238,113.9742076
屯門,V City 謝謝儂,V city,22.3957616,113.9718352
屯門,V city,V city,22.3953878,113.9739331
屯門,V-city 八月花,八月花 (屯門) Jasmine (Tuen Mun),22.3961045,113.9739664
屯門,三聖熟食中心 南記海鮮飯店,南記海鮮飯店,22.381808,113.97764
屯門,三聖邨豐漁樓,三聖邨豐漁樓,22.3812751,113.977948
屯門,三聖邨進漁樓,三聖邨進漁樓,22.3820316,113.9781339
屯門,仁愛堂賽馬會社區及體育中心,仁愛堂體育中心,22.3965437,113.976043
屯門,仁愛街市,仁愛街市,22.3878836,113.9800723
屯門,倚嶺南庭,倚嶺南庭,22.412407,113.9837095
屯門,偉昌工業中心 祥順景餐廳,祥順景,22.4007225,113.9683023
屯門,兆康苑兆基閣,兆康苑兆基閣,22.4139906,113.9773672
屯門,兆康苑兆昌閣,兆康苑兆昌閣,22.4128847,113.9782965
屯門,兆畦苑兆富閣,兆畦苑兆富閣,22.4051502,113.9665177
屯門,兆畦苑兆強閣,兆畦苑兆強閣,22.4054267,113.9658671
屯門,兆禧苑安禧閣,兆禧苑安禧閣,22.3731858,113.9677258
屯門,兆禧苑樂禧閣,兆禧苑樂禧閣,22.374437,113.9669823
屯門,兆禧苑順禧閣,兆禧苑順禧閣,22.3739569,113.9672611
屯門,兆軒苑順生閣,兆軒苑順生閣,22.4072158,113.9706066
屯門,兆隆苑,兆隆苑,22.4080021,113.9644732
屯門,兆麟苑嘉麟閣,兆麟苑F座嘉麟閣,22.3838102,113.976949
屯門,兆麟苑瑞麟閣,兆麟苑E座瑞麟閣,22.3838393,113.9773207
屯門,利景樓 嘉麗園潮州粉麵餐廳,嘉麗園粉麵,22.444046,114.0274887
屯門,勤業樓,勤業樓,22.444757,114.025033
屯門,卓爾居,卓爾居,22.4007501,113.9744438
屯門,卓爾居2期6座,卓爾居二期6座,22.4004793,113.974045
屯門,卓爾居3座,卓爾居一期3座,22.401569,113.974446
屯門,卓爾居廣場 海港酒樓,Victoria Harbour Restaurant,22.4004386,113.9742102
屯門,卓爾廣場 大快活,大快活 卓爾居,22.4006273,113.9735198
屯門,卓爾廣場,卓爾廣場,22.4004045,113.9735654
屯門,南浪海灣2座,南浪海灣2座,22.3820608,113.9712571
屯門,友愛街市,友愛街市,22.388429,113.974277
屯門,友愛邨愛信樓,友愛邨愛信樓,22.3861398,113.9725123
屯門,友愛邨愛勇樓,愛勇樓,22.387698,113.974436
屯門,友愛邨愛明樓,友愛邨愛明樓,22.3890987,113.9732783
屯門,友愛邨愛暉樓,友愛邨愛暉樓,22.3883749,113.9738591
屯門,友愛邨愛義樓,友愛邨愛義樓,22.3860783,113.9738914
屯門,友愛邨街市,友愛街市,22.388429,113.974277
屯門,吉田大廈（第二及三期）,吉田大廈第二期,22.393215,113.968545
屯門,啟豐商場 小桃園餐廳小廚,小桃園餐廳小廚,22.3728045,113.9646827
屯門,啟豐商場,啟豐商場,22.3736388,113.9622618
屯門,嘉喜利大廈,嘉喜利大廈,22.3884799,113.9800157
屯門,嘉悅半島2座,嘉悅半島2座,22.38229,113.9727208
屯門,大欖涌村,大欖涌村,22.367531,114.022131
屯門,大欖涌村101號,大欖涌村,22.367531,114.022131
屯門,大興商場 大家樂,大家樂,22.4025202,113.9714966
屯門,大興商場 翠河餐廳,翠河餐廳 大興邨分店,22.4034686,113.9713207
屯門,大興商場,大興邨,22.4035463,113.9704007
屯門,大興花園1期3座,大興花園一期3座,22.3997993,113.9729531
屯門,大興花園2期7座,大興花園二期7座,22.3995085,113.9714662
屯門,大興邨興偉樓,大興邨興偉樓,22.4020508,113.9718147
屯門,大興邨興平樓,大興邨興平樓,22.4042331,113.9718147
屯門,大興邨興泰樓,大興邨興泰樓,22.4035088,113.9701755
屯門,大興邨興泰樓附翼大厦,大興邨興泰樓,22.4035088,113.9701755
屯門,大興邨興輝樓,大興邨興輝樓,22.4032505,113.9718193
屯門,安定邨定龍樓,安定邨定龍樓,22.3882693,113.976345
屯門,安定邨定龍樓高座,定龍樓,22.388302,113.976423
屯門,宣道會陳瑞芝紀念中學,宣道會陳瑞芝紀念中學,22.3870475,113.9723326
屯門,富健花園7座,富健花園7座,22.3829378,113.9664841
屯門,富健花園9座,富健花園9座,22.3827045,113.9658904
屯門,富泰商場 包點先生,包點先生 Bao Dim Sin Seng,22.413763,113.983084
屯門,富泰商場 漁樂,漁樂 Lime Fish,22.4145532,113.9763999
屯門,富泰商場 翠河餐廳,翠河餐廳,22.4137397,113.9829927
屯門,富泰商場 麥當勞,麥當勞,22.4137702,113.9833299
屯門,富泰商場,富泰商場一期,22.4136919,113.9809633
屯門,富泰街市,富泰街市,22.3982816,114.0214582
屯門,富泰邨愛泰樓,愛泰樓,22.413766,113.984345
屯門,富泰邨秀泰樓,富泰邨秀泰樓,22.4130908,113.9832449
屯門,富泰邨頌泰樓,富泰邨頌泰樓,22.4135122,113.9850105
屯門,寶田中轉房屋2座,寶田邨,22.4106153,113.9668924
屯門,寶田商場,寶田商場停車場,22.409343,113.966653
屯門,寶田邨1座,寶田邨第1座,22.4088203,113.9666338
屯門,寶田邨8座,寶田邨第8座,22.4106971,113.9669126
屯門,小欖22號,珀居,22.3681342,114.0075841
屯門,小欖村,小欖村,22.366327,114.011452
屯門,小欖村22號,帝濤灣,22.367288,114.0129376
屯門,屯⾨中央廣場 富臨酒家,富臨酒家 Fulum Restaurant,22.3812527,113.9714961
屯門,屯⾨中央廣場富臨酒家,富臨酒家 Fulum Restaurant,22.3812527,113.9714961
屯門,屯門中央廣場 富臨酒家,富臨酒家 Fulum Restaurant,22.3812527,113.9714961
屯門,屯門公共圖書館,屯門公共圖書館,22.3911478,113.9768253
屯門,屯門市中心 定食8,定食8,22.3938074,113.9752716
屯門,屯門市廣場 太平洋咖啡,Pacific Coffee,22.39295,113.976649
屯門,屯門市廣場 牛一,牛一(屯門分店),22.3924645,113.977522
屯門,屯門市廣場 稻成小館,稻成小館,22.3927314,113.9780447
屯門,屯門市廣場,屯門市廣場,22.3934912,113.9770604
屯門,屯門市廣場1期 名苑,名苑,22.392916,113.977674
屯門,屯門市廣場1期 名點屋,名點屋,22.3925705,113.9779682
屯門,屯門市廣場2期 錦麗,錦麗 PhoLe,22.3940322,113.976065
屯門,屯門市廣場3期,屯門市廣場,22.3934912,113.9770604
屯門,屯門市廣場一期 名點屋,名點屋,22.3925705,113.9779682
屯門,屯門市廣場二期,屯門市廣場第二期,22.3939595,113.9761708
屯門,屯門康麗花園商場,康麗花園,22.398373,113.974928
屯門,屯門時代廣場 ‎ 板長壽司,板長壽司,22.3929828,113.9754366
屯門,屯門時代廣場 ‎板長壽司,板長壽司,22.3929828,113.9754366
屯門,屯門時代廣場 稻香,稻香超級漁港,22.3921462,113.9755643
屯門,屯門時代廣場 越棧,越棧,22.3925209,113.9759895
屯門,屯門時代廣場,屯門時代廣場,22.3921606,113.9758675
屯門,屯門時代廣場北翼,屯門時代廣場,22.3931642,113.9757613
屯門,屯門泳池壁球室,屯門游泳池壁球場,22.383617,113.970148
屯門,屯門濾水廠,屯門濾水廠,22.4079922,113.9815257
屯門,屯門碼頭,屯門碼頭,22.3717798,113.9660391
屯門,屯門警署,屯門警署,22.3957998,113.9718019
屯門,山景商場 一粥麵,一粥麵,22.3965257,113.9661685
屯門,山景商場 大家樂,大家樂,22.3967383,113.9662701
屯門,山景商場 雲貴軒米線專門店,雲貴軒米線專門店,22.3965446,113.9662859
屯門,山景商場,山景商場,22.3966366,113.9643754
屯門,山景邨 道教青松小學,道教青松小學,22.397621,113.9669359
屯門,山景邨商場,山景商場,22.3966317,113.9665641
屯門,山景邨景業樓,山景邨景業樓,22.3988941,113.9663318
屯門,山景邨景樂樓,山景邨,22.3981329,113.9662423
屯門,山景邨景美樓,山景邨景美樓,22.3999416,113.9668894
屯門,山景邨景華樓,山景邨景華樓,22.3964498,113.9668894
屯門,康和護老中心黃金分院,康和護老中心黃金分院,22.400506,113.9787001
屯門,康恩園,康恩園,22.4086417,113.9693056
屯門,建生商場,建生邨,22.4072666,113.9694442
屯門,建生邨商場,建生邨,22.4072666,113.9694442
屯門,建生邨康生樓,建生邨康生樓,22.4059027,113.9707692
屯門,建生邨泰生樓,建生邨泰生樓,22.4059245,113.9714662
屯門,彩華花園D座,彩華花園D座,22.3859158,113.9806429
屯門,怡峰園5座,怡峰園5座,22.3912949,113.9804338
屯門,恒福商場,恆福商場,22.3826748,113.9779089
屯門,恒福花園7座,恆福花園7座,22.3821662,113.9768561
屯門,恒福花園第７座,恒福花園,22.3829423,113.9772405
屯門,悅湖山莊2座,悅湖山莊2座,22.374979,113.9683995
屯門,悅湖山莊4座,悅湖山莊4座,22.3742152,113.9688177
屯門,愛定商場 大家樂,Café de Coral,22.3870155,113.9755347
屯門,愛定商場 大快活,大快活,22.3932459,113.9754269
屯門,愛定商場 彩晶軒,彩晶軒,22.3870748,113.9747955
屯門,愛定商場 都城餐廳,都城餐廳,22.3877782,113.9745494
屯門,愛定商場,愛定商場,22.3878435,113.9752328
屯門,慎成大廈,慎成大廈,22.3955363,113.9753692
屯門,掃管笏村129號,屯門掃管笏村路129號,22.3757744,114.0051869
屯門,新圍苑新賢閣,新圍苑新賢閣,22.4050668,113.9635671
屯門,新墟村,新墟村,22.400717,113.979567
屯門,新墟街市,屯門新墟街市,22.3973155,113.9758872
屯門,新屯門中心9座,新屯門中心9座,22.3809804,113.965751
屯門,新屯門中心９座,新屯門中心9座,22.3809804,113.965751
屯門,新屯門商場,新屯門商場,22.3812408,113.9643827
屯門,新慶村,新慶村,22.418435,113.979804
屯門,新界南總區警察總部,新界南交通部,22.371109,114.122577
屯門,新都商場,新都商場,22.3908333,113.9783333
屯門,新都大廈,新都商場,22.3908333,113.9783333
屯門,明偉大樓 坤記粥店,坤記,22.3953324,113.9746602
屯門,明偉大樓,明偉大樓,22.3954266,113.9746979
屯門,時代廣場 大快活,大快活,22.3932459,113.9754269
屯門,時代廣場,屯門時代廣場,22.3921606,113.9758675
屯門,景峰花園5座,景峰花園5座,22.4035044,113.9803641
屯門,景峰花園商場,祥益地產代理有限公司(景峰分行),22.4031327,113.9796319
屯門,欣田邨俊田樓,欣田邨俊田樓,22.4157304,113.9770784
屯門,欣田邨悅田樓,欣田邨悅田樓,22.4143038,113.9764062
屯門,欣田邨綠田樓,欣田邨綠田樓,22.4145145,113.9752532
屯門,欣田邨逸田樓,欣田邨逸田樓,22.4150114,113.9767297
屯門,泥圍,泥圍站,22.423836,113.9865365
屯門,海典軒購物商場,海典軒,22.3837082,113.9711666
屯門,海慧花園,海慧花園1座,22.3766577,113.9828384
屯門,海慧花園1座,海慧花園1座,22.3766577,113.9828384
屯門,海翠花園1座,海翠花園1座,22.3728692,113.9657045
屯門,海趣坊 大快活,大快活,22.3727246,113.9656699
屯門,海趣坊 稻香,稻香,22.3724425,113.9668274
屯門,海趣坊,海趣坊,22.3724946,113.96677
屯門,海麗花園 功夫點心,海麗花園,22.4073786,113.9683878
屯門,港鐵兆康站 美心西餅,美心西餅,22.4119996,113.978958
屯門,湖安街䨇寓商場,䨇寓,22.3760303,113.9677019
屯門,湖景邨湖光樓,湖景邨湖光樓,22.3748696,113.9649146
屯門,湖景邨湖暉樓,湖景邨湖暉樓,22.3775031,113.9656581
屯門,湖景邨湖畔樓,湖景邨湖畔樓,22.3740985,113.9651005
屯門,湖景邨湖碧樓,湖景邨湖碧樓,22.3739675,113.9642641
屯門,湖景邨湖翠樓,湖景邨湖翠樓,22.3766447,113.9658439
屯門,澤豐花園澤國樓,澤豐花園1座澤國樓,22.4040581,113.9751601
屯門,澤豐花園澤民樓,澤豐花園3座澤民樓,22.4034907,113.9754389
屯門,澤豐花園澤泰樓,澤豐花園2座澤泰樓,22.4039126,113.9755319
屯門,田景邨田敦樓,田景邨田敦樓,22.4067362,113.9658671
屯門,田景邨田樂樓,田景邨田樂樓,22.4073182,113.9649378
屯門,福亨村,福亨村,22.417833,113.991432
屯門,紫翠花園6座,紫翠花園6座,22.4306128,113.9943729
屯門,置樂花園,置樂花園,22.3876,113.9795
屯門,美樂花園1座,美樂花園1座,22.3735745,113.9623125
屯門,美樂花園2座,美樂花園2座,22.3733125,113.9620337
屯門,翠林花園 翠林茶餐廳,翠林茶餐廳,22.401022,113.9727459
屯門,翠林花園 輝記潮州粉麵 ,輝記潮州粉麵,22.4010167,113.9726363
屯門,翠林花園 輝記潮州粉麵,輝記潮州粉麵,22.4010167,113.9726363
屯門,翠林花園商場,翠林花園C座,22.4005341,113.9721632
屯門,翠濤居3座,翠濤居3座,22.3810422,113.9799924
屯門,良景廣場,良景廣場,22.4063434,113.9627991
屯門,良景邨良俊樓,良景邨良俊樓,22.4053397,113.9608489
屯門,良景邨良偉樓,良景邨良偉樓,22.4045104,113.9611277
屯門,良景邨良賢樓,良景邨良賢樓,22.4082058,113.9637297
屯門,菁雋,菁雋,22.4041253,113.9785969
屯門,菜園村,菜園村,22.419802,113.991984
屯門,華樂大廈,華樂大廈,22.3888073,113.9793187
屯門,華都商場 西麵,西麵,22.3922,113.978565
屯門,華都商場 轉角,轉角,22.3922595,113.9777846
屯門,華都商場 雲南小鍋米線,譚仔雲南米線,22.39194,113.9778211
屯門,華都商場,華都花園,22.391605,113.9781624
屯門,華都商場E-Mo Korean Restaurant,E-MO,22.3915543,113.978322
屯門,華都花園 E-Mo Korean Restaurant,E-MO,22.3915543,113.978322
屯門,藍地福亨村16號,屯門福亨村路16號,22.41846,113.9868028
屯門,藍地綠怡居5座,藍地福亨村路138號綠怡居5座,22.4180692,113.9838355
屯門,藍地街市,藍地街市暨小販市場,22.4189079,113.9840696
屯門,蝴蝶廣場 太興,太興,22.3746767,113.9634974
屯門,蝴蝶廣場,Butterfly Plaza,22.3752484,113.9630632
屯門,蝴蝶邨蝶聚樓,蝴蝶邨蝶聚樓,22.3761825,113.9630792
屯門,豐景園1座,豐景園1座,22.3848433,113.9728601
屯門,豐景園5座,豐景園5座,22.3842541,113.972442
屯門,賽馬會屯門盲人安老院,賽馬會屯門盲人安老院,22.4073835,113.9715732
屯門,遠東發展屯門大廈,遠東發展屯門大廈,22.3962162,113.9772975
屯門,金寶大廈,金寶大廈,22.4037495,113.9789784
屯門,金蘭閣,金蘭閣,22.3969621,113.9751834
屯門,金銘大廈,金銘大廈,22.4024246,113.9779248
屯門,錦華商場,錦薈坊 K-Point,22.39392,113.9754649
屯門,錦薈坊,錦薈坊 K-Point,22.39392,113.9754649
屯門,雅都商場,雅都大廈停車場,22.398751,113.975778
屯門,雅都花園,雅都大廈停車場,22.398751,113.975778
屯門,青山公路19咪 容龍海鮮酒家,容龍海鮮酒家,22.3804569,113.9819183
屯門,青山公路新墟段199號好勝大廈,好勝大廈,22.4040429,113.9791561
屯門,青海圍6號,屯門青海圍6號,22.3891538,113.9786769
屯門,青磚圍路188號,屯門青磚圍路188號,22.4223548,113.981282
屯門,香港內河碼頭 建榮飯堂,大海建榮食堂,22.3965015,113.9683999
屯門,香港屯門貝爾特酒店,屯門貝爾特酒店,22.3958166,113.9719537
屯門,香港黃金海岸二期32座,香港黃金海岸21座,22.367872,113.993138
屯門,黃家圍,黃家圍,22.399455,113.978932
屯門,黃家圍一台 104、105、106、107、114、115 地下及 112-113 號,黃家圍,22.3994742,113.9701772
屯門,黃家圍一台104、105、106、107、114、115地下及112-113號,黃家圍,22.3994742,113.9701772
屯門,黃金海岸商場 太平洋咖啡,太平洋咖啡,22.3718552,113.9927338
屯門,黃金海岸商場 麥當勞,麥當勞,22.371531,113.992516
屯門,黃金海岸商場,黃金海岸商場,22.3718951,113.9925625
屯門,龍門居 11座,龍門居11座,22.385698,113.9669823
屯門,龍門居,龍門居,22.3847347,113.9665087
屯門,龍門居11座,龍門居11座,22.385698,113.9669823
屯門,龍門居4座,龍門居4座,22.3857562,113.9666106
屯門,龍門居7座,匯豐銀行屯門龍門居ATM,22.3842294,113.9653914
東區,H21商埸 明星金閣海鮮酒家,明星金閣,22.2780182,114.2272447
東區,佳翠苑顯翠閣,佳翠苑A座顯翠閣,22.2620283,114.2508912
東區,健康村2期,健康村二期1A座康祥閣,22.2917871,114.2060481
東區,健康邨三期棕樹樓,健康邨三期棕樹樓,22.290339,114.205796
東區,僑裕大廈,僑裕大廈,22.292154,114.1976888
東區,兆寶大廈,兆寶大廈,22.2911623,114.2042435
東區,北角匯,北角匯,22.2927224,114.1993779
東區,北角街市,北角街市,22.2912972,114.2055444
東區,協興工業大廈,協興工業大廈,22.2671662,114.2442711
東區,南方大廈,南方大廈,22.290023,114.194784
東區,友邦廣場 星巴克咖啡,星巴克,22.2881446,114.1924551
東區,和富中心,和富中心,22.2919619,114.1954428
東區,城市花園8座,城市花園8座,22.2910284,114.193529
東區,城市花園商場 （城市中心）,城市花園商場,22.2903516,114.1932553
東區,城市花園第７座,城市花園10座,22.2906897,114.1931439
東區,太古坊1座,太古坊一座,22.2872167,114.2110724
東區,太古坊濠豐大廈,濠豐大廈,22.2872167,114.2110724
東區,太古城中心 大家樂,大家樂,22.2864079,114.2179323
東區,太古城中心 春水堂,太古城中心,22.286721,114.217477
東區,太古城中心,太古城中心,22.286721,114.217477
東區,太古城中心3期,太古城中心第3期,22.2878034,114.2168096
東區,太古城中心二期 Greyhound Café,Greyhound Cafe,22.2871433,114.217519
東區,太古城中心第3期,太古城中心第3期,22.2878034,114.2168096
東區,太古城恆山閣,太古城高山台恆山閣,22.285653,114.2194063
東區,太古城翠湖台鄱陽閣,太古城翠湖台鄱陽閣,22.284791,114.220846
東區,太古城翠湖臺鄱陽閣,太古城翠湖台鄱陽閣,22.284791,114.220846
東區,太古城道19號恆山閣,太古城高山台恆山閣,22.285653,114.2194063
東區,太古城金殿台唐宮閣,太古城金殿台唐宮閣,22.2860071,114.2155053
東區,太古城金殿臺唐宮閣,唐宮閣,22.286057,114.215549
東區,太安樓,太安樓; 筲箕灣道,22.2826313,114.2216679
東區,如心銅鑼灣海景酒店 阿翁小館,阿翁小館 Ah Yung Kitchen,22.283243,114.1928188
東區,威德閣 半島冰室,半島冰室,22.2881855,114.1918513
東區,威德閣,威德閣,22.288332,114.192013
東區,宏德居B座,宏德居商場,22.2640013,114.2396526
東區,富怡花園,富怡花園,22.2628253,114.2498465
東區,富怡花園5座,富怡花園5座,22.2628166,114.2507286
東區,富怡花園２座,富怡花園2座,22.2632749,114.2503107
東區,富景花園1座,富景花園1座,22.2637836,114.25247
東區,富景花園3座,富景花園3座,22.2629375,114.2524468
東區,富欣花園3座,富欣花園3座,22.2658512,114.2493123
東區,富澤花園富邦閣,富澤花園富邦閣,22.2875939,114.1937012
東區,富雅花園金桂閣,富雅花園金桂閣,22.2904656,114.2036862
東區,富雅花園金楓閣,富雅花園金楓閣,22.290552,114.2042435
東區,小西灣邨瑞喜樓,小西灣瑞喜樓,22.2608409,114.2489504
東區,小西灣邨瑞明樓,小西灣瑞喜樓,22.2608409,114.2489504
東區,小西灣邨瑞泰樓,小西灣邨O座瑞泰樓,22.2610705,114.2503339
東區,小西灣邨瑞發樓,小西灣邨K座瑞發樓,22.2636153,114.2485694
東區,峻峰花園,峻峰花園,22.2788431,114.2290249
東區,峻峰花園B座,峻峰花園,22.2788431,114.2290249
東區,峻峰花園C座,峻峰花園,22.2788431,114.2290249
東區,康怡廣場 茶木台式休閒餐廳,茶木 · 台式休閒餐廳,22.285,114.21612
東區,康怡廣場(南),康怡廣場南座,22.2840955,114.2162948
東區,康怡廣場,康怡廣場,22.2848144,114.2159423
東區,康怡廣場辦公大樓,康怡廣場辦公大樓,22.2850769,114.2158703
東區,康景花園E座,康景花園E座,22.2820113,114.2130672
東區,康澤花園 麥當勞,麥當勞,22.288154,114.1936775
東區,康澤花園D座,康澤花園D座,22.2884944,114.1940727
東區,康翠臺商場,康翠臺,22.2670731,114.2350972
東區,康蕙花園1座,康蕙花園1座,22.2834647,114.2126957
東區,康蕙花園2座,康蕙花園2座,22.2835959,114.212417
東區,建安閣 Délifrance,Delifrance,22.2868696,114.214014
東區,得勝大廈 新釗記,新釗記,22.2920597,114.1994131
東區,得勝大廈新釗記,新釗記,22.2920597,114.1994131
東區,德宏大廈,德宏大廈,22.2872344,114.211058
東區,愛東商場 大家樂,大家樂,22.2805751,114.2278573
東區,愛東商場,愛東商場,22.2808612,114.2277794
東區,愛東邨愛逸樓,愛東邨愛逸樓,22.2800474,114.2278582
東區,愛禮街2號,愛秩序灣愛禮街2號,22.2810548,114.228716
東區,愛蝶灣商場,愛東商場,22.2808612,114.2277794
東區,新成中心B座,新成中心,22.279525,114.224628
東區,新成中心C座,新成中心,22.279525,114.224628
東區,新成大樓,新成大樓,22.2794659,114.2256059
東區,新都城大廈,新都城大廈,22.2905261,114.1994101
東區,昌明洋樓,昌明洋樓,22.2910027,114.201248
東區,明報工業中心B座,明報工業中心,22.268442,114.2449168
東區,明月大廈,明月大廈,22.2909837,114.1962555
東區,明華大廈B座,明華大廈,22.2793699,114.2312389
東區,杏花新城 譽點精緻點心,Praise Spot Dim Sum Cuisine,22.2769422,114.2397539
東區,杏花新城,杏花新城,22.2767315,114.2399396
東區,杏花邨1座,杏花邨1座,22.2760165,114.2397231
東區,杏花邨26座,杏花邨26座,22.2787401,114.2398624
東區,杏花邨5座,杏花邨5座,22.2775146,114.2385157
東區,杏花邨第１座,杏花邨38座,22.2776836,114.240271
東區,東勝樓,東勝樓,22.2804645,114.2307374
東區,東大樓,東大樓,22.277211,114.229719
東區,東欣苑歡欣閣,東欣苑A座歡欣閣,22.280457,114.221465
東區,東濤苑映濤閣,東濤苑D座映濤閣,22.2816533,114.2250022
東區,東濤苑曉濤閣,東濤苑A座曉濤閣,22.282388,114.225959
東區,東豪大廈,東豪大廈,22.2773129,114.2278903
東區,東隅,香港東隅 EAST Hong Kong,22.2860064,114.2160626
東區,東駿苑金駿閣,東駿苑金駿閣,22.277353,114.2222855
東區,柏蔚山3座,柏蔚山 FLEUR PAVILIA,22.290069,114.2036932
東區,柯達大廈2座,柯達大廈二座,22.2925569,114.2069603
東區,柴灣市政大廈,柴灣市政大廈,22.26335,114.239849
東區,柴灣邨灣畔樓,柴灣邨灣畔樓,22.2641189,114.2420682
東區,樂融軒 明星金閣海鮮酒家,明星金閣,22.2780182,114.2272447
東區,樂軒臺,樂軒臺,22.263897,114.240544
東區,樂軒臺5座,樂軒臺5座,22.2643484,114.2415806
東區,歌連臣角火葬場,歌連臣角火葬場,22.2582954,114.2303659
東區,海寧大廈,海寧大廈,22.280814,114.2225874
東區,海山樓,海山樓,22.284192,114.2119749
東區,海峰園高峰閣,高峯閣,22.2880537,114.191585
東區,海澄大廈,海澄大廈,22.2799535,114.2233573
東區,海關總部大樓,海關總部大樓,22.29263,114.2033769
東區,渣華道市政大廈,渣華道市政大廈,22.292286,114.199478
東區,漁灣街市,漁灣街市,22.2651717,114.2402785
東區,濱海大廈,濱海大廈,22.2881456,114.2114254
東區,濱海街中興大廈,中興大廈,22.286503,114.21104
東區,理文商業中心 百匯軒,百匯軒,22.2876694,114.1916022
東區,環翠邨利翠樓,環翠邨利翠樓,22.2631461,114.2392587
東區,環翠邨澤翠樓,澤翠樓,22.2623913,114.2369406
東區,百福花園百佳閣,百福花園百佳閣,22.2898469,114.2045685
東區,碧麗閣A座,碧麗閣,22.27958,114.224347
東區,祥利工業大廈,祥利工業大廈,22.2643392,114.2360306
東區,筲箕灣道88號,筲箕灣道88號,22.2824848,114.2213219
東區,箕灣道114號,筲箕灣道114號,22.281983,114.2217398
東區,美麗閣,美麗閣,22.2904365,114.1980667
東區,耀東商場,耀東商場,22.2773554,114.2241997
東區,耀東邨耀福樓,耀東邨耀福樓,22.2777897,114.2217282
東區,耀東邨耀興樓,耀東邨耀興樓,22.2765596,114.2245343
東區,耀東邨耀輝樓,耀東邨耀輝樓,22.2781043,114.2252576
東區,興東邨興祖樓,興東邨興祖樓,22.2815705,114.2193134
東區,興東邨興豐樓,興東邨興豐樓,22.2820349,114.2196849
東區,興祥大廈,興祥大廈,22.2836603,114.2209852
東區,興華(一)邨美華樓,興華(一)邨美華樓,22.2625303,114.2355669
東區,興華(一)邨興翠樓,興華(一)邨興翠樓,22.2627347,114.2348239
東區,興華(二)邨和興樓,興華(二)邨和興樓,22.2630132,114.2330593
東區,興華(二)邨樂興樓,興華(二)邨樂興樓及裕興樓,22.2637098,114.2336165
東區,英皇道625號,英皇道625號,22.2923038,114.2062636
東區,華懋交易廣場,華懋交易廣場停車場,22.2880239,114.2118264
東區,華蘭中心,華蘭中心,22.2867801,114.2133691
東區,藍灣廣場,Island Resort Mall,22.266226,114.2508984
東區,西灣河市政大廈,西灣河市政大廈,22.2820928,114.2225441
東區,譽都,譽都,22.2784691,114.226674
東區,賽西湖大廈15座,賽西湖大廈,22.285835,114.2019286
東區,逸樺園1座,逸樺園1座,22.2833795,114.2139263
東區,長匯工業大廈,長匯工業大廈,22.2662789,114.2357835
東區,電氣道134號 善心醫務中心,善心醫務中心 KIND MEDICAL CENTRE,22.2856124,114.191677
東區,電氣道134號,銅鑼灣電氣道134號,22.2856124,114.191677
東區,電氣道134號善心醫務中心,善心醫務中心 KIND MEDICAL CENTRE,22.2856124,114.191677
東區,電氣道市政大廈,電氣道市政大廈,22.289602,114.193597
東區,養和東區醫療中心,養和東區醫療中心,22.2825609,114.2326413
東區,高山台富山閣,太古城高山台富山閣,22.2859886,114.2183846
東區,高山臺富山閣,太古城高山台富山閣,22.2859886,114.2183846
沙田,Home Square 八月花,八月花 (沙田) Jasmine (Shatin),22.3853353,114.1873656
沙田,世界花園龍柏閣,世界花園龍柏閣,22.3641658,114.1792109
沙田,乙明邨明恩樓,乙明邨明恩樓,22.3763026,114.1930278
沙田,乙明邨明耀樓,明耀樓,22.37737,114.191746
沙田,乙明邨街5號,沙田乙明邨街5號,22.3759595,114.191191
沙田,九龍城浸信會禧年(恩平)小學,九龍城浸信會禧年(恩平)小學,22.368808,114.18206
沙田,京瑞廣場1期 豐鍋雞煲,豐鍋雞煲火鍋,22.3885302,114.2081161
沙田,京瑞廣場1期,京瑞廣場1期,22.3883571,114.2081221
沙田,京瑞廣場一期,京瑞廣場1期,22.3883571,114.2081221
沙田,京瑞廣場二期 富臨皇宮,富臨皇宮 (石門店),22.3887693,114.2087244
沙田,京瑞廣場二期,京瑞廣場二期,22.3888914,114.20842
沙田,仁安醫院,仁安醫院,22.3602972,114.1751722
沙田,保良局朱正賢小學,保良局朱正賢小學,22.376181,114.196034
沙田,偉華中心3座,偉華中心3座,22.381122,114.1873617
沙田,冠華鏡廠集團大廈,冠華鏡廠集團大廈,22.3829198,114.2056949
沙田,利安商場,利安邨,22.4260055,114.2412848
沙田,利安邨利興樓,利安邨1座利興樓,22.4260076,114.2418824
沙田,利達工業中心 伙食工業,GLOs Cafe by fooody 伙食工業,22.3990111,114.1927947
沙田,博康商場,博康邨,22.3754592,114.1956878
沙田,博康邨博泰樓,博康邨博泰樓,22.3767484,114.1957214
沙田,名城 1 期3座,名城一期,22.369569,114.175679
沙田,名城1期1座,名城一期,22.369569,114.175679
沙田,名城1期3座,名城一期,22.369569,114.175679
沙田,名城3期3座,名城三期,22.370148,114.176375
沙田,嘉順苑,Ka Shun Court,22.3616383,114.1743657
沙田,大圍嘉順苑,Ka Shun Court,22.3616383,114.1743657
沙田,大圍村西巷41號,Now Hair,22.3750685,114.1783825
沙田,大圍街市,大圍街市,22.373802,114.177072
沙田,大圍道94號,大圍大圍道94號,22.3740795,114.1786896
沙田,大圍道天寶樓金裝燉奶佬餐廳,Daniel's Restaurant,22.3740139,114.1786818
沙田,天寶樓 金裝燉奶佬餐廳,Daniel's Restaurant,22.3740139,114.1786818
沙田,好運中心 吉野家,吉野家,22.3824835,114.191174
沙田,好運中心 唐記包點,唐記包點,22.3835698,114.1901954
沙田,好運中心,好運中心,22.3826222,114.1912127
沙田,威力工業中心,火炭坳背灣街2號威力工業中心,22.3973933,114.1939507
沙田,富嘉花園1座,富嘉花園1座,22.3735416,114.1775389
沙田,富嘉花園2座,富嘉花園2座,22.3735192,114.1779569
沙田,富嘉花園3座,富嘉花園3座,22.3737221,114.1783285
沙田,富安花園2座,富安花園2座,22.4038164,114.2242127
沙田,富寶花園5座,富寶花園5座,22.4252323,114.2379817
沙田,寶福紀念館,大圍寶福紀念館,22.3740432,114.1703633
沙田,希爾頓中心 譚仔三哥米線,譚仔三哥米線,22.3793538,114.1868276
沙田,希爾頓中心 麥當勞,麥當勞,22.379397,114.186835
沙田,希爾頓中心,Hilton Plaza,22.3793495,114.1868134
沙田,帝都酒店,帝都香港酒店,22.3798552,114.1884978
沙田,廣源商場第三座 一葉小廚,一葉小廚,22.3810537,114.2156364
沙田,廣源邨廣棉樓,廣源邨廣棉樓,22.3814546,114.2149595
沙田,德安樓,德安樓,22.3744774,114.1785143
沙田,恆安商場,恆安商場,22.4167341,114.2256715
沙田,恆安邨恆山樓,恆安邨恆山樓,22.4161286,114.2294371
沙田,恆安邨恆峰樓,恆安邨恆峰樓,22.4156363,114.2286941
沙田,恆安邨恆月樓,恆安邨恆月樓,22.4175847,114.2279511
沙田,恆峰花園3座,恆峰花園3座,22.3779757,114.1718263
沙田,恒安商場 麵包城,麵包城（恆安邨東南）,22.416839,114.228204
沙田,恒安商場,恆安商場,22.4167292,114.2278602
沙田,恒安邨恒月樓,恆安邨恆月樓,22.4175847,114.2279511
沙田,恒峰花園3座,恆峰花園3座,22.3779757,114.1718263
沙田,愉田苑愉群閣,愉田苑愉群閣,22.3827951,114.2026877
沙田,愉田苑愉逸閣,愉田苑愉逸閣,22.3837644,114.203036
沙田,愉翠商場 一粥麵,Super Super Congee & Noodles,22.382178,114.2052691
沙田,愉翠商場 君臨宴會廳,君臨宴會廳,22.3821795,114.2053945
沙田,愉翠苑愉居閣,愉翠苑J座愉居閣,22.38121,114.2054045
沙田,新城市中央廣場 荳子,Beans The Greenhouse,22.3856732,114.1880647
沙田,新城市中央廣場,新城市中央廣場,22.3852778,114.1877778
沙田,新城市廣場 L.D.K. by Ufufu Café,Ufufu Cafe,22.3819472,114.1892583
沙田,新城市廣場 Pizza Express,Pizza Express,22.381712,114.189046
沙田,新城市廣場 Shake Shack,Shake Shack New Town Plaza,22.3814486,114.1883116
沙田,新城市廣場 翠園,翠園,22.3771304,114.1974398
沙田,新城市廣場,新城市廣場,22.3817578,114.1886372
沙田,新城市廣場1期 鼎泰豐,鼎泰豐,22.3811111,114.1880556
沙田,新城市廣場3期 炙・宴,ABURI-EN HK 炙・宴 (沙田店),22.3791889,114.187575
沙田,新城市廣場3期,新城市廣場第三期,22.3798128,114.1876669
沙田,新城市廣場一期 鼎泰豐,鼎泰豐,22.3811111,114.1880556
沙田,新城市廣場三期 Isaac Toast,Isaac Toast,22.3799351,114.1874018
沙田,新港城K座,新港城K座,22.4236818,114.230802
沙田,新港城中心(3期) 海記魚蛋粥麵,新港城中心,22.4241633,114.2314688
沙田,新港城中心(3期),新港城中心大街 MOSTown Street ( 三期 ),22.4222937,114.2318685
沙田,新港城中心(4期) 星巴克咖啡,新港城中心,22.4241633,114.2314688
沙田,新港城中心(4期) 麥當勞,麥當勞,22.4235785,114.2304462
沙田,新港城中心(4期),新港城中心,22.4241633,114.2314688
沙田,新港城中心,新港城中心,22.4241633,114.2314688
沙田,新翠商場 Pizza Hut,必勝客,22.3696955,114.1816283
沙田,新翠商場,新翠商場,22.369369,114.179082
沙田,新翠邨新儀樓,新翠邨新儀樓,22.3695946,114.1808597
沙田,新翠邨新月樓,新月樓,22.3703545,114.1803721
沙田,新翠邨新芳樓,新翠邨新芳樓,22.3714238,114.1819743
沙田,新翠邨新芳樓,新翠邨新芳樓,22.3714238,114.1819743
沙田,新貿中心,新貿中心,22.3906398,114.2073782
沙田,新貿中心A座,New Trade Plaza,22.3906398,114.2073782
沙田,村南道51號 紅茶冰室,大圍村南道51號冰室,22.374115,114.176926
沙田,東莞工商總會劉百樂中學,東莞工商總會劉百樂中學,22.372677,114.175488
沙田,東華三院馮黃鳳亭中學,東華三院馮黃鳳亭中學,22.3847355,114.1928633
沙田,樓上集團中心,樓上集團中心,22.376563,114.1806274
沙田,欣安邨欣喜樓,欣安邨,22.4140787,114.2254345
沙田,水泉澳廣場,水泉澳廣場,22.3734431,114.1969189
沙田,水泉澳邨明泉樓,水泉澳邨明泉樓,22.3742152,114.1985079
沙田,水泉澳邨映泉樓,水泉澳邨映泉樓,22.371632,114.1966502
沙田,水泉澳邨月泉樓,水泉澳邨月泉樓,22.3722854,114.1969289
沙田,水泉澳邨林泉樓,水泉澳邨林泉樓,22.3736739,114.1984062
沙田,水泉澳邨樂泉樓,水泉澳村乐泉楼,22.3709904,114.1979506
沙田,永得利中心,永得利中心,22.388556,114.2070276
沙田,沙田中心 麥當勞,麥當勞,22.3824221,114.1906815
沙田,沙田中心,沙田廣場,22.3831876,114.1893997
沙田,沙田凱悅酒店,香港沙田凱悅酒店,22.411897,114.211047
沙田,沙田商業中心 麥當勞,麥當勞,22.3971806,114.1932789
沙田,沙田商業中心,沙田商業中心,22.3972442,114.1934135
沙田,沙田圍新村,沙田圍新村; 沙田圍路,22.378633,114.197444
沙田,沙田廣場 譚仔三哥米線,譚仔三哥米線,22.3835374,114.1897059
沙田,沙田第一城 4 座,沙田第一城4座,22.3887209,114.2030476
沙田,沙田第一城 一粥麵,一粥麵,22.387284,114.2021855
沙田,沙田第一城,沙田第一城,22.3867692,114.2026412
沙田,沙田第一城1座,沙田第一城1座,22.3878309,114.2040577
沙田,沙田第一城4座,沙田第一城4座,22.3887209,114.2030476
沙田,沙田第一城7座,沙田第一城7座,22.3882728,114.2027806
沙田,沙田萬怡酒店 譽宴星海薈,譽宴·星海薈,22.390726,114.2066691
沙田,沙田街市,沙田街市,22.3839245,114.1899643
沙田,沙角商場 大快活,大快活,22.3777752,114.1938257
沙田,沙角市場,沙角街市,22.377361,114.193468
沙田,海栢花園2座,海栢花園2座,22.425551,114.2321305
沙田,海澄軒海景酒店,海澄軒,22.4264296,114.2275739
沙田,海福花園2座,海福花園,22.3733628,114.176216
沙田,港鐵大圍站 大快活,大快活,22.3728457,114.1780119
沙田,港鐵大圍站,港鐵大圍站,22.372223,114.179871
沙田,濱景花園2座,濱景花園2座,22.3914909,114.2048936
沙田,濱景花園4座,濱景花園4座,22.3907357,114.2047079
沙田,瀝源商場 富東閣海鮮酒家,富東閣海鮮酒家,22.3848379,114.1920939
沙田,瀝源邨榮瑞樓,瀝源邨榮瑞樓一座,22.3837591,114.1911964
沙田,瀝源邨福海樓,瀝源邨福海樓,22.385314,114.1917274
沙田,瀝源邨貴和樓,基督教香港信義會沙田多元化金齡服務中心,22.3847748,114.1905993
沙田,火炭村,火炭村,22.395673,114.195174
沙田,烏溪沙村一巷,烏溪沙村,22.426509,114.239513
沙田,玖瓏山傲瓏閣2座,玖瓏山 傲瓏閣 第2座,22.413795,114.1990652
沙田,玖瓏山傲瓏閣２座,玖瓏山 傲瓏閣 第2座,22.413795,114.1990652
沙田,環球工業中心,環球工業中心,22.3988661,114.1906592
沙田,田園閣1座,田園閣1座,22.3799992,114.1959768
沙田,田心村255號,TS’ Taste cafe,22.3692898,114.1789173
沙田,盈力工業中心,盈力工業大廈,22.3997574,114.1919895
沙田,石古壟村,石古壟村公廁,22.384159,114.218666
沙田,碧濤花園3期1座,沙田碧濤花園二期,22.3951462,114.2087449
沙田,碩門商場,碩門商場,22.3863838,114.2084344
沙田,碩門邨喜碩樓,喜碩樓,22.3847823,114.2098865
沙田,碩門邨美碩樓,美碩樓,22.386297,114.2098398
沙田,福安花園,福安花園,22.4245587,114.2292602
沙田,禾輋廣場 金百滬,金百滬 (小籠包專門店),22.3883527,114.194839
沙田,禾輋邨富和樓,禾輋邨富和樓,22.3891241,114.1961626
沙田,禾輋邨德和樓,禾輋邨德和樓,22.387405,114.19463
沙田,禾輋邨熟食檔 金仔,金仔米線,22.3777366,114.1941422
沙田,禾輋邨美和樓,禾輋邨美和樓,22.3901257,114.1967199
沙田,禾輋邨豐和樓,禾輋邨豐和樓,22.3863426,114.1934922
沙田,秦石邨石玉樓,秦石邨石玉樓,22.3737698,114.1869902
沙田,積富樓,積富樓,22.3748629,114.178282
沙田,積富街35號 大利茶餐廳,大利茶餐廳,22.3752556,114.1781791
沙田,積富街89號,大圍積富街89號,22.374329,114.1786046
沙田,積達樓 老表雲吞麵,老表雲吞麵,22.3760235,114.1777347
沙田,穗禾苑慶宏閣,穗禾苑,22.3938679,114.19446
沙田,穗禾苑詠興閣,詠興閣,22.39233,114.193278
沙田,第一城站,第一城站,22.38282,114.20349
沙田,置富第一城 牛八和牛燒肉屋,牛八和牛燒肉屋,22.3866445,114.2045262
沙田,置富第一城 麥當勞,麥當勞,22.3862297,114.2041574
沙田,置富第一城‧集,置富第一城,22.3852252,114.2046846
沙田,美城苑暉城閣,美城苑暉城閣,22.3797609,114.1755651
沙田,美松苑盛松閣,美松苑D座盛松閣,22.380554,114.1726158
沙田,美松苑麗松閣,美松苑B座麗松閣,22.380512,114.173664
沙田,美林商場 大家樂,大家樂,22.3781396,114.1761688
沙田,美林商場 海港燒鵝海鮮酒家,海港燒鵝海鮮酒家,22.378437,114.176665
沙田,美林商場 翠河茶餐廳,翠河餐廳,22.3782154,114.1762251
沙田,美林商場 翠河餐廳,翠河餐廳,22.3782154,114.1762251
沙田,美林商場,美林商場,22.3781771,114.1739043
沙田,美林村商場,美林邨,22.3780697,114.1775987
沙田,美林邨美桃樓,美林邨美桃樓,22.3777274,114.1772603
沙田,美林邨美桃樓C座,美桃樓,22.3777833,114.1772506
沙田,美林邨美楓樓,美林邨美楓樓,22.3773627,114.1758437
沙田,美柏苑,美柏苑,22.3784333,114.173533
沙田,美田商場,美田邨,22.375928,114.1700892
沙田,美田邨美全樓,美田邨美全樓,22.3770045,114.1725926
沙田,美田邨美樂樓,美田邨美樂樓,22.3754652,114.1718495
沙田,美田邨美滿樓,美田邨美滿樓,22.3751587,114.1726855
沙田,耀安商場,耀安商場,22.4204629,114.2304123
沙田,耀安邨耀和樓,耀和樓,22.419797,114.230637
沙田,耀安邨耀平樓,耀安邨耀平樓,22.4188295,114.2299944
沙田,耀寶大廈 麥當勞,麥當勞,22.375322,114.1774665
沙田,萬佛寺,萬佛寺,22.3876093,114.1847775
沙田,西林寺,西林寺,22.3858651,114.1891935
沙田,連城廣場 小南洋,小南洋,22.3825145,114.1874421
沙田,連城廣場,Citylink,22.3825691,114.1875111
沙田,金禧商場 大家樂,大家樂,22.3746528,114.1776155
沙田,金禧花園 譚仔三哥米線,譚仔三哥米線,22.3835374,114.1897059
沙田,銀湖．天峰3座,銀湖天峰3座,22.4288209,114.2439257
沙田,錦泰商場,錦泰商場,22.4087594,114.2217721
沙田,錦泰苑錦基閣,錦泰苑M座錦基閣,22.4081005,114.2216586
沙田,錦泰苑錦天閣,錦泰苑J座錦天閣,22.406948,114.220834
沙田,錦泰苑錦晶閣,錦泰苑G座錦晶閣,22.4074015,114.2207066
沙田,錦泰苑錦邦閣,錦泰苑B座錦邦閣,22.409082,114.2212406
沙田,錦英苑錦順閣,錦英苑F座錦順閣,22.4223491,114.2362403
沙田,錦豐苑錦萱閣,錦豐苑F座錦萱閣,22.421901,114.224821
沙田,錦豐苑錦葵閣,錦豐苑E座錦葵閣,22.4223274,114.224979
沙田,錦豐苑錦蕙閣,錦豐苑C座錦蕙閣,22.423725,114.225696
沙田,錦豐苑錦薇閣,錦豐苑G座錦薇閣,22.4210935,114.2245146
沙田,錦鞍苑銀鞍閣,錦鞍苑B座銀鞍閣,22.4165537,114.2260703
沙田,錦龍苑龍悅樓,錦龍苑A座龍悅閣,22.4260504,114.2406519
沙田,隆亨商場 福盈酒家,福盈酒家,22.3678204,114.1791932
沙田,隆亨商場,Lung Hang Shopping Centre,22.3681124,114.179676
沙田,隆亨社區中心,隆亨社區中心,22.367668,114.179629
沙田,隆亨邨善心樓,隆亨邨善心樓,22.3655708,114.1774925
沙田,隆亨邨學心樓,隆亨邨學心樓,22.3666361,114.1769584
沙田,隆亨邨慧心樓,隆亨邨慧心樓,22.364754,114.177664
沙田,隆亨邨榮心樓,隆亨邨榮心樓,22.3686088,114.1793735
沙田,隆亨邨賞心樓,隆亨邨賞心樓,22.3651992,114.1781891
沙田,隔田村,隔田村南滘,22.367032,114.183494
沙田,隔田村公廟,沙田車公廟,22.373419,114.182831
沙田,雅景臺2座,雅景臺2座,22.4205484,114.2327574
沙田,雲疊花園6座,雲叠花園6座,22.3677116,114.1756795
沙田,雲疊花園商場,雲疊花園商場,22.368507,114.177542
沙田,頌安商場 ,Chung On Shopping Centre,22.421869,114.226598
沙田,頌安商場 大家樂,大家樂,22.4219884,114.2267624
沙田,頌安商場 百匯軒,百匯軒,22.4218194,114.2267911
沙田,頌安商場,Chung On Shopping Centre,22.421869,114.226598
沙田,頌安邨頌和樓,頌安邨頌和樓,22.4229756,114.2274867
沙田,頌安邨頌群樓,頌安邨頌群樓,22.4240523,114.2267437
沙田,顯徑商場,顯徑商場,22.3635076,114.169825
沙田,顯徑村熟食亭 榮發燒味茶餐廳,榮發燒味茶餐廳（顯徑）,22.3633907,114.1726748
沙田,顯徑熟食中心 榮發燒味茶餐廳,榮發燒味茶餐廳（顯徑）,22.3633907,114.1726748
沙田,顯徑邨顯富樓,顯徑邨顯富樓,22.3609613,114.1720353
沙田,顯徑邨顯慶樓,顯徑邨顯慶樓,22.3639097,114.1732428
沙田,顯耀邨顯耀樓,顯耀邨顯耀樓,22.3669305,114.1745433
沙田,香港賽馬會沙田馬場,香港賽馬會沙田馬場,22.4011111,114.2052778
沙田,香粉寮,香粉寮,22.377342,114.167333
沙田,馬鞍山中心,馬鞍山廣場,22.4254804,114.2313545
沙田,馬鞍山廣場 Pepper Lunch,胡椒廚房,22.4258773,114.2316248
沙田,馬鞍山廣場 大快活,大快活,22.425439,114.2318751
沙田,馬鞍山廣場,新港城中心,22.4241633,114.2314688
沙田,駿景園5座,駿景園5座,22.4004096,114.2025251
沙田,駿洋邨停車場,彭福公園停車場,22.3991217,114.2031169
沙田,麗峰花園德苑C3座,麗峰花園,22.392839,114.186754
沙田,麗峰花園明苑 C1座,麗峰花園,22.392839,114.186754
沙田,麗豪酒店 龍門客棧,龍門客棧,22.382272,114.196055
油尖旺,Grand Austin 2座,Grand Austin 第二座,22.3036786,114.1675766
油尖旺,K11 Musea Artisan Lounge,Artisan Lounge,22.2943356,114.1743988
油尖旺,K11 MUSEA Artisan Lounge,Artisan Lounge,22.2943356,114.1743988
油尖旺,K11 Musea,K11 MUSEA,22.294059,114.1741227
油尖旺,K11 MUSEA,K11 MUSEA,22.294059,114.1741227
油尖旺,K11 人文購物藝術館 Artisan Lounge,K11,22.297525,114.1736355
油尖旺,K11 蓮苑,蓮苑 Lian Yuan,22.2975092,114.1735294
油尖旺,K11 購物藝術館,K11,22.297525,114.1736355
油尖旺,K11人文購物藝術館,K11,22.297525,114.1736355
油尖旺,K11購物藝術館,K11,22.297525,114.1736355
油尖旺,M+ Hotel,M+ Hotel,22.3231093,114.1699244
油尖旺,M1 酒店,M1酒店,22.3125,114.1702778
油尖旺,M1酒店 油麻地,M1酒店,22.3125,114.1702778
油尖旺,MPM文華商場 沙嗲王 ,沙嗲王,22.3188486,114.168872
油尖旺,MPM文華商場 沙嗲王,沙嗲王,22.3188486,114.168872
油尖旺,The One 東海薈 · 拉斐特,東海薈.拉斐特,22.2998217,114.1726855
油尖旺,The One 鮨千寿,鮨千壽,22.2996592,114.1721813
油尖旺,The One,The ONE,22.2998104,114.1703923
油尖旺,一盛大廈,一盛大廈,22.3233488,114.1617244
油尖旺,上海街13號 來多碗車仔麵,來多碗車仔麵,22.3156794,114.2236675
油尖旺,上海街25-35號,上海街25號,22.3037751,114.1690396
油尖旺,上海街279-283號 灝美公寓,灝美公寓,22.3105176,114.1696898
油尖旺,上海街489號金基樓,金基樓,22.3164557,114.1685287
油尖旺,上海街618號 蘇媽.蘇媽馬來西亞茶餐室,蘇媽·蘇媽馬來西亞食品專門店,22.3288133,114.1619217
油尖旺,上海街631-633 新廣南餐室,新廣南餐室,22.319673,114.167895
油尖旺,上海街631-633號 新廣南餐室,新廣南餐室,22.319673,114.167895
油尖旺,中匯街33號中興樓,中興樓,22.3223539,114.1608353
油尖旺,中原樓,中原樓,22.3228702,114.1608884
油尖旺,中星樓,中星樓,22.3222897,114.1601453
油尖旺,中晶金融中心,中晶金融中心,22.3013253,114.1762849
油尖旺,中港城 米線陣,米線陣,22.2999346,114.1673587
油尖旺,中美樓,中美樓,22.3226951,114.1614458
油尖旺,中華基督教會望覺堂,中華基督教會望覺堂,22.3218834,114.1692778
油尖旺,九龍佑寧堂,九龍佑寧堂,22.3055948,114.1727087
油尖旺,九龍草地滾球會,九龍草地滾球會,22.3035692,114.174032
油尖旺,九龍酒店,九龍酒店,22.2957152,114.1717745
油尖旺,亞太中心,亞太中心,22.2969894,114.1712922
油尖旺,京士柏道15號,白普理大廈,22.3103691,114.1754722
油尖旺,仁安大廈B座,仁安大廈B座,22.3160115,114.1723139
油尖旺,仕德福山景酒店,仕德福山景酒店,22.3014619,114.1744504
油尖旺,仕德福酒店,仕德福酒店,22.3169907,114.1731435
油尖旺,佐敦薈 富園海鮮酒家,富園海鮮酒家 (佐敦),22.3048992,114.1715053
油尖旺,佐敦道46號 譚仔三哥米線,譚仔三哥米線,22.3053464,114.16868
油尖旺,余仁生中心,Eu Yan Sang 余仁生,22.2969701,114.17512
油尖旺,俊皇海鮮酒家,新昇海鮮酒家,22.3171249,114.1735442
油尖旺,信和中心,精品,22.3160911,114.1704003
油尖旺,健峰保險大廈 金滿樓,金滿樓,22.3069277,114.1712935
油尖旺,兆萬中心 Yadllie Plate,Yadllie Plate,22.3157814,114.1705851
油尖旺,先施大廈,先施大廈,22.3198502,114.1706419
油尖旺,先達廣場,先施大廈,22.3198502,114.1706419
油尖旺,凱帆軒第3座,凱帆軒,22.3209638,114.1553802
油尖旺,凱豪商業中心 譚仔雲南米線,譚仔雲南米線,22.304725,114.170758
油尖旺,利源閣,利源閣,22.313804,114.168151
油尖旺,利發大樓,利發大樓,22.321791,114.168265
油尖旺,利美大廈,利美大廈,22.325938,114.1682088
油尖旺,利興大廈,利興大樓,22.320228,114.1708071
油尖旺,利達行 肯德基,肯德基,22.3140171,114.1706005
油尖旺,利達行 肯德基家鄉雞,肯德基,22.3140171,114.1706005
油尖旺,創德樓,創德樓,22.303226,114.169556
油尖旺,創興廣場 盈館,盈館 Ying Dining,22.3161973,114.1697708
油尖旺,創興廣場,創興廣場,22.316229,114.1697621
油尖旺,力寶太陽廣場,力寶太陽廣場,22.2969792,114.1697718
油尖旺,加士居道38號 土地審裁處,土地審裁處,22.308285,114.172734
油尖旺,勞資審裁處,勞資審裁處,22.307843,114.173009
油尖旺,北海街21號 發記茶餐廳,發記茶餐廳,22.3078768,114.1722832
油尖旺,半島中心 德興酒家,Tack Hsin Restaurant,22.2991044,114.177237
油尖旺,半島中心,半島中心商場,22.2990655,114.177277
油尖旺,南洋中心 富士山55,富士山55,22.299933,114.1783787
油尖旺,南洋中心 百樂門宴會廳,百樂門宴會廳(尖東店),22.299837,114.178296
油尖旺,南頭街3號,南頭街3-13號,22.3181434,114.1669496
油尖旺,厚福街11號 麺処一家,麺処一家,22.2996222,114.1740208
油尖旺,友和大樓,友和大樓,22.3209579,114.1709438
油尖旺,合盈商業大廈,合盈商業中心,22.3244415,114.1680716
油尖旺,君怡酒店,君怡酒店,22.3005805,114.1737669
油尖旺,嘉康中心,嘉康中心,22.3253016,114.1685289
油尖旺,嘉文花園3座,嘉文花園3座,22.3055508,114.1729874
油尖旺,嘉業大廈 麥當勞,麥當勞香港,22.3221308,114.1684822
油尖旺,嘉美樓,嘉美樓,22.3112139,114.1708045
油尖旺,嘉芙中心,嘉芙中心,22.2990882,114.1755418
油尖旺,嘉賓商業大廈,油麻地彌敦道301-309號嘉賓商業大廈,22.3055972,114.169182
油尖旺,嘉齡樓 澳門咖喱王新鮮腩,澳門咖哩王新鮮腩,22.3049321,114.1704287
油尖旺,國強大厦,國強大廈,22.3149081,114.1683894
油尖旺,國强大廈,國強大廈,22.3149081,114.1683894
油尖旺,國際廣場 炊公館,炊公館 Champ Kitchen (尖沙咀 TST),22.296828,114.172003
油尖旺,國際廣場 燒肉牛蔵,Yakiniku Gyukura,22.2966255,114.1719508
油尖旺,國際廣場,國際廣場,22.297025,114.1718959
油尖旺,圓方 千両,千両,22.3032701,114.1628089
油尖旺,圓方 大快活,大快活,22.3035214,114.163065
油尖旺,圓方,圓方,22.3047692,114.1612911
油尖旺,埃華街91-93號 晴苑泰國菜 ,Sunny Thai Restaurant,22.321349,114.1607017
油尖旺,埃華街91-93號 晴苑泰國菜,Sunny Thai Restaurant,22.321349,114.1607017
油尖旺,基隆街64號,太子基隆街64號,22.32575,114.166211
油尖旺,大同新邨大公樓,大同新邨大公樓,22.321692,114.1617244
油尖旺,大同新邨大方樓,大同新邨大方樓,22.3212706,114.1616315
油尖旺,大同新邨大英樓,大同新邨大英樓,22.3217156,114.1601917
油尖旺,大同新邨大貴樓 譚仔三哥米線,譚仔三哥雲南米線,22.3220291,114.1611981
油尖旺,大角咀大廈,大角咀大廈,22.3197131,114.163768
油尖旺,大角咀市政大廈,大角咀市政大廈,22.3220032,114.1627927
油尖旺,天文臺道14號,天文臺道14-16號,22.3012028,114.1754025
油尖旺,天文臺道８號,尖沙咀天文臺道8號,22.3011024,114.1756731
油尖旺,天星大廈 翠林辣蟹舫,翠林辣蟹舫,22.2974496,114.170576
油尖旺,天璽慧鑽璽,天璽,22.3056375,114.1608129
油尖旺,太子道西113號 西記粥店,西記粥店,22.323681,114.167586
油尖旺,太子道西偉興大廈,偉興大廈,22.324426,114.169763
油尖旺,太陽廣場,力寶太陽廣場,22.2969792,114.1697718
油尖旺,奧海城1期 大家樂,大家樂,22.3191771,114.1584306
油尖旺,奧海城1期 糖心軒,糖心軒,22.3186577,114.1588648
油尖旺,奧海城1期,大家樂,22.3191771,114.1584306
油尖旺,奧海城2期,奧海城二期,22.3172044,114.1619682
油尖旺,奧海城一期 大家樂,大家樂,22.3185584,114.1586215
油尖旺,奧海城二期,奧海城二期,22.3172044,114.1619682
油尖旺,奶路臣街1-1E號源發大廈,源發大廈,22.3180225,114.1666346
油尖旺,奶路臣街2號,電力支站,22.3179244,114.1677856
油尖旺,好安樓,好安樓,22.3035164,114.1728945
油尖旺,好望角大廈 倫敦大酒樓,倫敦大酒樓,22.3171611,114.1699917
油尖旺,好望角大廈 麥當勞,麥當勞,22.3172549,114.1703007
油尖旺,始創中心 潮‧悅,始創中心停車場,22.3225834,114.1693211
油尖旺,始創中心,始創中心停車場,22.3225834,114.1693211
油尖旺,威華大廈,威華大廈,22.3002217,114.1755418
油尖旺,安年大廈 九記打冷.小菜.粉麵,九記打冷.小菜.粉麵 Nine Kee Chiu Chow Restaurant,22.3000407,114.1758553
油尖旺,安豪樓,安豪樓,22.323314,114.1695505
油尖旺,宏貿發展大廈 必勝客,必勝客 (堪富利士道),22.2980558,114.1727697
油尖旺,家樂坊,家樂坊,22.3151075,114.1712915
油尖旺,富多來新邨商場2期,富多來新邨,22.319709,114.163144
油尖旺,富榮花園11座,富榮花園一期11座,22.3135049,114.1648033
油尖旺,富榮花園15座,富榮花園二期15座,22.314245,114.165144
油尖旺,富薈旺角酒店,富薈旺角酒店,22.3202727,114.165387
油尖旺,寶來大廈,寶來大廈,22.3047486,114.1724068
油尖旺,寶寧大廈,寶寧大廈,22.3187417,114.1708974
油尖旺,寶興大樓,寶興大樓,22.3261562,114.1652019
油尖旺,寶軒酒店(尖沙咀),寶軒酒店(尖沙咀),22.301955,114.1747269
油尖旺,尖沙咀中心,尖沙咀中心,22.2976578,114.1778408
油尖旺,尖沙咀消防局職員宿舍,尖沙咀消防局,22.301266,114.16768
油尖旺,尖沙嘴中心 Outback,Outback Steakhouse - 金馬倫道,22.2988517,114.1726158
油尖旺,山東街50號,旺角山東街50號,22.3176805,114.1714324
油尖旺,山東街88號 門角,旺角山東街88號,22.3178426,114.1725322
油尖旺,希爾頓大廈,希爾頓大廈,22.299728,114.177262
油尖旺,帝京酒店,Royal Plaza Hotel 帝京酒店,22.324062,114.173044
油尖旺,帝柏海灣2座,帝柏海灣2座,22.3172293,114.1619319
油尖旺,帝柏海灣5座,帝柏海灣5座,22.3175226,114.1628503
油尖旺,帝柏海灣第五座,柏景灣帝柏海灣1座,22.3170234,114.1615409
油尖旺,康宏廣場,康宏廣場,22.30161,114.1784641
油尖旺,康樂大廈,康樂大廈,22.3110895,114.1707818
油尖旺,康齡大廈 大家樂,大家樂,22.324144,114.1678485
油尖旺,康齡大廈,康齡大廈,22.3241556,114.1678163
油尖旺,廣富大廈 旺角88,廣富大廈,22.3167151,114.1672979
油尖旺,廣東道543-553號廣興大廈,廣興大廈,22.3068935,114.1680642
油尖旺,廣東道565號,油麻地廣東道565號,22.3072775,114.1681953
油尖旺,廣東道847-865號 永發大廈,永發大廈,22.3142236,114.1680291
油尖旺,廣東道959-973號廣興大廈,廣興大廈,22.3164277,114.1675998
油尖旺,廣東道967號廣興大廈,旺角廣東道967號,22.3164991,114.167572
油尖旺,廣東道廣福大廈,廣福大廈,22.3168347,114.1675069
油尖旺,廣發商業大廈,廣發商業大廈,22.30792,114.168622
油尖旺,廣興大廈,廣興大廈,22.3164277,114.1675998
油尖旺,廣輝大廈,廣輝大廈,22.316631,114.173216
油尖旺,弼街38號利發大樓,利發大樓,22.321791,114.168265
油尖旺,彌敦道198-500號 紅茶冰室,冰室,22.3035173,114.1720585
油尖旺,彌敦道238號,油麻地彌敦道238號,22.3048218,114.1719424
油尖旺,彌敦道240-252號,立信大廈,22.3051706,114.1719424
油尖旺,彌敦道312號美明大廈,美明大廈,22.3060479,114.1718001
油尖旺,彌敦道748號,旺角彌敦道748號,22.3219341,114.1690279
油尖旺,彌敦酒店 稻香,稻香 Pier 88,22.307631,114.171695
油尖旺,御金．國峯6座,御金·國峯,22.309285,114.166145
油尖旺,德信學校,德信學校,22.3035829,114.1722421
油尖旺,德利樓,德利樓,22.3062007,114.1702471
油尖旺,德惠行,德惠行,22.3062895,114.1720353
油尖旺,德田邨德敬樓,德田邨1座德敬樓,22.3109832,114.238053
油尖旺,怡興閣 維亞軒餐廳,維亞軒餐廳,22.3050079,114.1723017
油尖旺,恆信商業大廈,恆信商業大廈,22.298689,114.173214
油尖旺,恆福商場,恆福商場,22.3826748,113.9779089
油尖旺,恒成大廈,恆成大廈,22.3079267,114.1710062
油尖旺,恒生113,恒生 113 保管箱中心,22.320405,114.173297
油尖旺,恒生尖沙咀大廈,鍾皓暉醫生,22.2989735,114.1733218
油尖旺,恒福商業中心,恆福商業中心,22.3038486,114.1714779
油尖旺,惠豐中心,惠豐中心,22.3192117,114.1696727
油尖旺,慶華大廈,慶華大樓,22.3140924,114.168849
油尖旺,招商永隆銀行中心,招商永隆銀行,22.318311,114.1698039
油尖旺,文利大廈,文利大廈,22.2988518,114.1688711
油尖旺,文昌樓,文昌樓,22.308113,114.1659974
油尖旺,文耀樓後座,二樓後座 Beyond Band房,22.3248041,114.1704708
油尖旺,文英樓,文英樓,22.3072983,114.1667406
油尖旺,文英樓後座,文華樓,22.3069577,114.1665462
油尖旺,文英街26-28號 新發茶餐廳,新發茶餐廳,22.307341,114.166172
油尖旺,文華樓 蛇王如冰室,佐敦文英街1-23號文華樓,22.3068888,114.1646912
油尖旺,文蔚街24號 新華寶城餐廳,新華寶城餐廳,22.3079378,114.1665547
油尖旺,文輝樓,文輝樓,22.3075319,114.1658116
油尖旺,文遜大廈,文遜大廈,22.2982961,114.1724068
油尖旺,新世紀廣場 Outback Steakhouse,Outback Steakhouse,22.323,114.171981
油尖旺,新世紀廣場 食代館,食代館,22.3239713,114.1731137
油尖旺,新九龍廣場 八方雲集鍋貼水餃專門店,八方雲集鍋貼水餃專門店,22.319733,114.1623074
油尖旺,新九龍廣場 名苑酒家,名苑酒家,22.3197653,114.1626069
油尖旺,新九龍廣場 意樂餐廳,Cafe de Itamomo 意樂餐廳,22.3156867,114.164537
油尖旺,新九龍廣場,新九龍廣場,22.319827,114.1625381
油尖旺,新填地街250-254號 海記燒臘飯店,海記燒臘飯店,22.31352,114.168915
油尖旺,新填地街616號,太子新填地街616號,22.323147,114.1669628
油尖旺,新太陽廣場,力寶太陽廣場,22.2969792,114.1697718
油尖旺,新文華中心 靚靚 不一樣的車仔麵,Liang Liang Noodles Shop,22.3005895,114.1784778
油尖旺,新文華中心,新文華中心B座,22.3006503,114.1787697
油尖旺,新旺樓,新旺樓,22.3213866,114.1709903
油尖旺,新東海商業中心,新東海商業中心停車場,22.3013522,114.1791929
油尖旺,新港中心 大食代,Food Republic 大食代,22.2975271,114.1692205
油尖旺,新港中心 鼎泰豐,鼎泰豐,22.2976528,114.1695639
油尖旺,新興鋼具商業大廈 鵝皇館,鵝皇館 Goose King Roasted Kitchen,22.3200423,114.1656521
油尖旺,旺角中心,旺角中心,22.319912,114.169461
油尖旺,旺角中心第1座 大家樂,大家樂,22.320171,114.1696254
油尖旺,旺角中心第1座,旺角彌敦道688號旺角中心第一座,22.3198444,114.1675308
油尖旺,旺角中心第1期,旺角中心,22.319912,114.169461
油尖旺,旺角政府合署,旺角政府合署,22.321378,114.1725951
油尖旺,旺角新城 紅茶,紅茶冰室,22.316221,114.1702936
油尖旺,旺角綜合大樓,旺角綜合大樓,22.318422,114.168205
油尖旺,旺角維景酒店 海港酒家,海港酒家,22.3234182,114.1675069
油尖旺,旺角維景酒店,旺角維景酒店,22.323359,114.1675774
油尖旺,旺角街市,旺角街市,22.3187871,114.16483
油尖旺,旺角道8D號,旺角旺角道8號,22.320954,114.1678785
油尖旺,旺角電腦中心,旺電,22.3184594,114.1711586
油尖旺,昆輝大廈 Paisano's Pizzeria,Paisano's Pizzeria 尖沙咀,22.2996134,114.1727903
油尖旺,星光行 麥當勞,麥當勞香港,22.294685,114.168999
油尖旺,星光行,星光行,22.2944543,114.1687698
油尖旺,普基商業中心,普基商業中心,22.2977236,114.1742414
油尖旺,最佳盛品酒店尖沙咀,最佳盛品酒店尖沙咀,22.300236,114.175856
油尖旺,月圓大廈,月圓大廈,22.3201782,114.1667638
油尖旺,朗廷軒 火水爐冰室火鍋,火水爐冰室火鍋,22.3166412,114.1727872
油尖旺,朗豪坊 美食廣場,旺角熟食市場,22.3184157,114.168173
油尖旺,朗豪坊,Langham Place,22.3181483,114.1686851
油尖旺,東匯大廈,東匯大廈,22.3007532,114.1746594
油尖旺,東海商業中心,東海商業中心,22.3003823,114.1777233
油尖旺,東莞同鄉會方樹泉學校,東莞同鄉會方樹泉學校,22.3114389,114.1682861
油尖旺,柏景灣2座,柏景灣,22.3161601,114.16335
油尖旺,柏豪商業大廈,柏豪商業大廈,22.302623,114.173055
油尖旺,柯士甸道37號創德樓,德樓,22.3032318,114.1694993
油尖旺,柯士甸道好兆年行,好兆年行,22.3030887,114.1751935
油尖旺,柯士甸道西1號,油麻地柯士甸道1號,22.303233,114.1684419
油尖旺,梳士巴利道香港基督教青年會,香港基督教青年會,22.295347,114.1710035
油尖旺,梳士巴利道香港基督教青年會/灣仔帝盛酒店,香港灣仔帝盛酒店,22.274559,114.178936
油尖旺,梳士巴利道香港基督教青年會,香港基督教青年會,22.295347,114.1710035
油尖旺,樂富大廈,樂富大廈,22.3235313,114.1701078
油尖旺,樂輝商業大廈 九龍餐室,九龍餐室,22.2977777,114.1714083
油尖旺,橡樹街39A號櫻桃大廈,櫻桃大廈,22.319174,114.163679
油尖旺,歐美廣場 老川皇,老川皇,22.315,114.1697222
油尖旺,歐美廣場,歐美廣場,22.3151119,114.1693878
油尖旺,永安九龍中心,永安九龍中心,22.3073643,114.1710079
油尖旺,永星大廈,永星大廈,22.3106983,114.1704794
油尖旺,永發樓,永發樓,22.3138108,114.1684358
油尖旺,汝州街垃圾收集站,汝州街垃圾收集站,22.3260601,114.1666838
油尖旺,油麻地救護站,油麻地救護站,22.3129482,114.1714846
油尖旺,泰盛商業(油蔴地)大樓 紅茶冰室,紅茶冰室,22.3073805,114.1680415
油尖旺,海富商場 意樂餐廳,Cafe de Itamomo 意樂餐廳,22.3156867,114.164537
油尖旺,海富苑海裕閣,海富苑E座海裕閣,22.3152067,114.164697
油尖旺,海富苑海韻閣,海富苑C座海韻閣,22.3168488,114.1647898
油尖旺,海洋中心,海洋中心,22.2963852,114.1689002
油尖旺,海港城 Amelia,Amelia Hong Kong,22.2950467,114.1681834
油尖旺,海港城 cookedDeli by city'super,cookedDeli by City’super,22.2984894,114.1684126
油尖旺,海港城 唐人館,China Tang Harbour City 唐人館 海港城,22.2982381,114.1679193
油尖旺,海港城,Wharf Tsim Sha Tsui,22.2970382,114.1686482
油尖旺,海港城港威商場 大家樂,大家樂,22.2993273,114.1675525
油尖旺,海溢閣,海溢閣,22.3128306,114.1677391
油尖旺,海福花園2座,海福花園,22.3733628,114.176216
油尖旺,海運大廈,海運大廈,22.2769765,114.1761455
油尖旺,海防道 寶豐大樓,寶豐大廈,22.2979024,114.17034
油尖旺,消防處旺角辦公大樓,消防處旺角辦公大樓,22.3202961,114.1622818
油尖旺,深圳街8號 新贊記點心皇,新贊記點心皇,22.318526,114.166707
油尖旺,港威商場 cookedDeli by city'super,cookedDeli by City’super,22.2984894,114.1684126
油尖旺,港威商場,海港城,22.2961713,114.1688563
油尖旺,港威大廈1座,港威大廈1座,22.2995928,114.1678207
油尖旺,港威大廈第一座,港威大廈第一座,22.299508,114.167915
油尖旺,港威酒店 Three on Canton,Three on Canton,22.297756,114.168542
油尖旺,港晶中心,港晶中心商場,22.3008894,114.1785049
油尖旺,港灣豪庭2期8座,港灣豪庭,22.3245493,114.1604704
油尖旺,港灣豪庭8座,港灣豪庭,22.3245493,114.1604704
油尖旺,港灣豪庭廣場 豪庭藝廚,豪庭廚藝,22.3242628,114.1607698
油尖旺,港鐵奧運站,奧運站,22.317771,114.16022
油尖旺,港鐵旺角東站 美心MX,美心MX,22.3219352,114.1724314
油尖旺,港鐵紅磡站 麥當勞,麥當勞,22.3059969,114.1855039
油尖旺,漢中大廈,漢中大廈,22.2961201,114.1713893
油尖旺,漢興大廈,漢興大廈,22.2977197,114.1712225
油尖旺,漾日居1座,漾日居1座,22.3045414,114.1626534
油尖旺,現時點,現時點,22.3133363,114.1707503
油尖旺,環球商業大廈,環球商業大廈,22.2962216,114.171575
油尖旺,環球金融中心南座,環球金融中心南座,22.2981,114.168597
油尖旺,瓊華中心,瓊華中心,22.3178437,114.1698872
油尖旺,登打士街國强大廈,國強大廈,22.3149496,114.1682993
油尖旺,白普理大廈,白普理大廈,22.3103691,114.1754722
油尖旺,百匯軒,百匯軒,22.3226307,114.1656433
油尖旺,百安大廈B座,百安大廈B座,22.3038474,114.1725926
油尖旺,百通大樓,通菜街205號,22.323141,114.169637
油尖旺,皇上皇大廈,皇上皇大廈,22.3186701,114.1696634
油尖旺,皇家太平洋酒店,香港皇家太平洋酒店,22.3001702,114.1680287
油尖旺,真光女書院,True Light Girls' College,22.3137454,114.1729451
油尖旺,砵蘭街 65號,砵蘭街65-73號,22.3140819,114.1696201
油尖旺,砵蘭街177-181號 佳記餐廳,佳記餐廳,22.3166885,114.1691417
油尖旺,砵蘭街177至181號 佳記餐廳,佳記餐廳,22.3166934,114.166953
油尖旺,砵蘭街383A號,太子砵蘭街383號,22.325073,114.167395
油尖旺,砵蘭街鑽石樓,鑽石樓,22.3243879,114.1678552
油尖旺,福泰大廈,福泰大廈,22.3165479,114.1704329
油尖旺,福祥樓,福祥樓,22.3201236,114.1606097
油尖旺,立信大廈,立信大廈,22.3051706,114.1719424
油尖旺,粵海酒店,香港粵海酒店,22.2987495,114.1747444
油尖旺,紅磡站停車場,紅磡站停車場,22.3030437,114.1811667
油尖旺,紫珀酒店,紫珀酒店,22.3011899,114.173616
油尖旺,維港灣5座,維港灣5座,22.3188448,114.1572424
油尖旺,美麗華廣場2期 葡匯咪走雞葡國餐廳,葡匯咪走雞葡國餐廳。 Mike's Chicken Comida de Portugal,22.3002414,114.17248
油尖旺,美麗華廣場2期,尖沙咀彌敦道132-134T號,22.3009412,114.172221
油尖旺,美麗華廣場一期 麵屋一平安,麵屋一平安,22.3009512,114.172173
油尖旺,美麗都大廈,美麗都大廈,22.2972567,114.1726391
油尖旺,翠園大樓二期,翠園大樓二期,22.3160795,114.1731267
油尖旺,胡社生行 御滿屋日本料理,Superior Manya Japanese Restaurant,22.3185003,114.1692486
油尖旺,興利大廈,興利大廈,22.3034446,114.1693117
油尖旺,良友大廈,良友大廈,22.3025257,114.1750309
油尖旺,花園街110號,旺角花園街110號,22.3201048,114.1711444
油尖旺,花園街181號,旺角花園街181號,22.3229921,114.1702375
油尖旺,花園街33-35號,花園街33號,22.3174823,114.1713502
油尖旺,荔塘大廈B座,荔塘大廈B座,22.3239546,114.1656259
油尖旺,荔枝角道15-21號,荔枝角道15-21號,22.3222473,114.1682965
油尖旺,荔枝角道21號,太子荔枝角道21號,22.322315,114.168256
油尖旺,荷李活商業中心,荷李活商業中心,22.3169284,114.1701539
油尖旺,華博商業大廈,華博商業大廈,22.2994169,114.1740092
油尖旺,華安大廈 田記魚蛋牛腩專門店,田記魚蛋牛腩專門店 Mr. Tin Hong Kong Cuisine,22.3138867,114.1700153
油尖旺,華懋王子大廈,華懋王子大廈,22.320983,114.1711993
油尖旺,華興大廈 莎娃迪卡,油麻地廟街269-271號華興大廈,22.3037957,114.1673734
油尖旺,華麗酒店,華麗酒店,22.3029965,114.1746718
油尖旺,萬事昌廣場,尖沙咀寶勒巷3號萬事昌廣場,22.2983424,114.1721688
油尖旺,裕旺大廈,裕旺大廈,22.3169535,114.1714547
油尖旺,裕耀工廠大廈,裕耀工廠大廈,22.3207585,114.1660553
油尖旺,西九龍政府合署南座,西九龍政府合署南座,22.3124572,114.1640666
油尖旺,西洋菜南街60號,旺角西洋菜南街60號,22.3184335,114.1703547
油尖旺,西貢街19號,油麻地西貢街19號,22.3069278,114.1722299
油尖旺,誠興樓 新森林焗之專門店,New Forest Restaurant,22.3159403,114.1711064
油尖旺,諾士佛臺10號,騰龍閣,22.3013607,114.1739859
油尖旺,路德會沙崙學校,路德會沙崙學校,22.31893,114.164992
油尖旺,通菜街169號,旺角通菜街169號,22.322073,114.169954
油尖旺,通菜街17號,通菜街17-35號,22.3172922,114.1708277
油尖旺,運動場道5A號,太子運動場道5號,22.325182,114.167715
油尖旺,遠東大廈,RedMr紅人派對 - 旺角,22.318643,114.168958
油尖旺,都會海逸酒店,都會海逸酒店,22.3013425,114.1832283
油尖旺,重慶大廈 大家樂,大家樂,22.2963555,114.1728248
油尖旺,金冠大廈,金冠大廈,22.2977985,114.172449
油尖旺,金勳大廈,金勳大廈,22.308267,114.1711064
油尖旺,金屋大廈,金屋大廈,22.3019357,114.1762849
油尖旺,金山大樓,金山商業大廈,22.3194522,114.1685712
油尖旺,金巴利大廈,金巴利大廈,22.3021413,114.1731482
油尖旺,金巴利道53-54號,尖沙咀金巴利道53號,22.3009487,114.1744368
油尖旺,金雞廣場 真味鮮廚,真味鮮廚,22.3183978,114.1717937
油尖旺,金雞廣場,金雞廣場,22.3184078,114.1717292
油尖旺,金馬倫道29A號,尖沙咀金馬倫道29a號,22.2994017,114.1746594
油尖旺,金馬倫里1-9號,尖沙咀金馬倫里1號,22.2991484,114.1728205
油尖旺,金麗閣,金麗閣,22.3008474,114.1748916
油尖旺,銀城廣場,銀城廣場,22.3161831,114.1708696
油尖旺,銀座38,銀座 38 Nathan Hill,22.3027316,114.1740512
油尖旺,銀座廣場 洪師傅牛肉麵,銀座廣場,22.3146392,114.167978
油尖旺,銀行中心廣場,銀行中心廣場,22.3182747,114.1699725
油尖旺,鎮海商業大廈,鎮海商業大廈,22.3215794,114.167832
油尖旺,鑽石樓 新廣南餐室,新廣南餐室,22.319673,114.167895
油尖旺,鑽石樓,鑽石樓,22.3243879,114.1678552
油尖旺,長旺大廈,長旺大廈,22.3195067,114.1665922
油尖旺,長榮大廈 元朗冰室,元朗冰室,22.3237393,114.167931
油尖旺,長榮大廈,長榮大廈,22.3237304,114.1659374
油尖旺,長樂街26號,油麻地長樂街26號,22.3064477,114.1724506
油尖旺,雅蘭中心 樂天皇朝,樂天皇朝,22.3181152,114.169367
油尖旺,雅蘭中心 稻香,稻香,22.3177989,114.1695014
油尖旺,雅蘭中心 迎囍,迎囍大酒樓,22.3177095,114.1695136
油尖旺,雅蘭中心,雅蘭中心二期,22.317596,114.169356
油尖旺,雅蘭中心1期,雅蘭中心,22.3178478,114.1694077
油尖旺,雅蘭中心一期,黃舜雯醫生 - 雅蘭中心,22.317912,114.169191
油尖旺,雲峰樓,雲峰樓,22.3233087,114.165642
油尖旺,順昌大廈,順昌大廈,22.315511,114.167807
油尖旺,順昌樓 616牛肉火鍋專門店,順昌樓,22.3266489,114.1640513
油尖旺,餘慶大廈,餘慶大廈,22.3050598,114.1702936
油尖旺,香港九龍維景酒店,香港九龍維景酒店,22.319472,114.175854
油尖旺,香港九龍諾富特酒店,香港九龍諾富特酒店,22.3073031,114.1720799
油尖旺,香港保護兒童會,香港保護兒童會,22.3259887,114.1668994
油尖旺,香港喜來登酒店,香港喜來登酒店,22.2952629,114.1726015
油尖旺,香港基督教青年會 Mall Café,Mall Cafe,22.294874,114.1708832
油尖旺,香港寶御酒店,Hotel Pravo,22.296554,114.1707348
油尖旺,香港文化中心行政大樓,香港文化中心,22.2938496,114.1703232
油尖旺,香港旺角帝盛酒店,香港旺角帝盛酒店,22.321273,114.162103
油尖旺,香港旺角維景酒店 海港酒家,海港酒家,22.3234182,114.1675069
油尖旺,香港旺角維景酒店海港酒家,海港酒家,22.3234182,114.1675069
油尖旺,香港朗廷酒店,The Langham Hong Kong,22.2964026,114.1675574
油尖旺,香港海景絲麗酒店,香港海景絲麗酒店,22.3102695,114.1700399
油尖旺,香港瑰麗酒店 彤福軒,彤福軒,22.2938763,114.1745836
油尖旺,香港瑰麗酒店,香港瑰麗酒店,22.2949764,114.1758105
油尖旺,香港童軍總會 富臨皇宮,富臨皇宮,22.3029119,114.1692044
油尖旺,香港藝術館 Art Ink Seafood Bar & Eatery,INK - seafood bar,22.2933191,114.1717904
油尖旺,香港藝術館 INK Seafood Bar & Eatery,INK - seafood bar,22.2933191,114.1717904
油尖旺,馬哥孛羅港威酒店,Gateway Hotel,22.297756,114.168542
油尖旺,馬哥孛羅香港酒店,馬哥孛羅香港酒店,22.2951648,114.1688605
油尖旺,馬頭圍道164號,紅磡馬頭圍道164號,22.3116985,114.1852803
油尖旺,騏生商業中心,騏生商業中心,22.2960291,114.1715518
油尖旺,高氏大廈 雞蛋屋,高氏大樓,22.3151412,114.1677968
油尖旺,鴻祥大廈 囍運冰室,囍運冰室,22.3165933,114.1719424
油尖旺,鴻禧大廈 新記雞粥,新記雞粥,22.3159776,114.1716918
油尖旺,鴻都大廈 吉野家,鴻都大廈,22.31691,114.172617
油尖旺,鴻都大廈 泰妃雞,泰妃雞,22.3168591,114.1719654
油尖旺,麗斯中心,麗斯中心,22.3031237,114.1731732
油尖旺,麗英大廈,麗英大廈,22.3255562,114.1682967
油尖旺,麥花臣匯1A座,麥花臣匯1A座,22.318543,114.1729874
油尖旺,麥花臣匯1B座,麥花臣匯1B座,22.3187683,114.1729409
油尖旺,龍堡國際,龍堡國際,22.3025414,114.1693385
深水埗,D2 Place 2期 金鳳大餐廳,金鳳大餐廳 (D2 分店),22.3361437,114.1476666
深水埗,D2 Place2期 金鳳大餐廳,金鳳大餐廳,22.3247104,114.1657319
深水埗,Good One Sushi 壽司刺身專門店,大阪府壽司刺身專門店,22.3349761,114.1607356
深水埗,V Walk,V Walk,22.3270845,114.1543942
深水埗,三英大廈,三英大廈,22.3283895,114.1666709
深水埗,中國宏興大廈,香港美容業總會,22.337106,114.1503725
深水埗,中央飯店,中央飯店,22.3303574,114.166269
深水埗,丰匯1座,豐滙1座,22.328953,114.159651
深水埗,九龍廣場 星藝廚坊,Orion Kitchen,22.338672,114.1472743
深水埗,保安道市政大廈,保安道市政大廈,22.3385076,114.1575455
深水埗,偉業樓,偉業樓,22.329123,114.164734
深水埗,億京廣場,億京廣場,22.3366021,114.1506702
深水埗,元安大廈,元安大廈,22.3344973,114.1607026
深水埗,元州商場 金滿都越南餐廳 ,金滿都越南餐廳,22.338545,114.1548774
深水埗,元州商場 金滿都越南餐廳,金滿都越南餐廳,22.338545,114.1548774
深水埗,元州商場,元州商場,22.3373874,114.1562573
深水埗,元州街174-188號鴻裕大廈,鴻裕大廈B座,22.335342,114.160243
深水埗,元州街388號,長沙灣元州街388號,22.3384352,114.1555568
深水埗,元州街華興大廈,華興大樓,22.3287844,114.1586358
深水埗,元州街鴻裕大廈,鴻裕大廈,22.3351446,114.1601917
深水埗,元州邨元樂樓,元州邨元樂樓,22.3365962,114.1556865
深水埗,冠奇大廈 阿明印尼餐廳,Amin Indonesian Restaurant,22.3326281,114.1615524
深水埗,創匯國際中心,創匯國際中心,22.3396339,114.1495984
深水埗,北河街34號,深水埗北河街34號,22.3277938,114.1604391
深水埗,北河街市政大廈,北河街市政大廈,22.3293251,114.1609873
深水埗,北河街街市及熟食中心,北河街街市及熟食中心,22.3295078,114.1608116
深水埗,南山商場,南山商場熟食檔,22.333079,114.170312
深水埗,南山村南山商場 南豐餐廳,南豐餐廳,22.3331343,114.1706899
深水埗,南山邨街市,南山邨街市,22.3328528,114.170552
深水埗,南廬大廈,南廬大廈,22.33742,114.156877
深水埗,南昌街199號 鑽石樓,鑽石樓第11期（南昌街）,22.331294,114.164898
深水埗,南昌街199號,元洲南昌街199號,22.33134,114.164842
深水埗,南昌街332號,賽馬會新生精神康復學院,22.3387385,114.1683661
深水埗,南昌邨昌謙樓,南昌邨3座昌謙樓,22.3267581,114.1576604
深水埗,南昌邨昌賢樓,南昌邨2座昌賢樓,22.3264194,114.1582874
深水埗,南灣大廈,南灣大廈,22.2281635,114.2004353
深水埗,南邦大廈,南邦大廈,22.3291781,114.1636055
深水埗,南邦樓,南邦樓,22.328975,114.160754
深水埗,南都大廈,南都大廈,22.3312276,114.1654404
深水埗,又一城 EXP,Exp/2,22.3374586,114.1722306
深水埗,又一城,又一城,22.3371238,114.1659657
深水埗,又一居29座,又一居26座,22.333616,114.172782
深水埗,友興大廈,友興大廈,22.3316221,114.1616548
深水埗,合興工業大廈,合興工業大廈,22.3377613,114.1432158
深水埗,同德大廈,同德大廈,22.3322749,114.1609033
深水埗,和豐大廈,和豐大廈,22.335438,114.1609581
深水埗,喜漾1座,喜漾,22.3389004,114.154518
深水埗,喜漾2座,喜漾,22.3389004,114.154518
深水埗,喜盈商場 壹號冰室,壹號冰室,22.339697,114.1535718
深水埗,喜雅1座,喜雅,22.3369975,114.1603311
深水埗,喜雅2座,喜雅 第2座,22.3370303,114.1602614
深水埗,喜雅一座,喜雅,22.3369975,114.1603311
深水埗,嘉利閣,嘉利閣,22.3298654,114.1600756
深水埗,基隆街20號,太子基隆街20號,22.325009,114.167179
深水埗,基隆街254號,深水埗基隆街254號,22.329344,114.161542
深水埗,基隆街255號 番茄師兄,番茄師兄,22.3287915,114.1619229
深水埗,基隆街298號 囍八方餃子麵館,深水埗基隆街298號,22.330157,114.160581
深水埗,大元樓,金山樓,22.332057,114.164649
深水埗,大南街183號,塘尾大南街183號,22.327032,114.163211
深水埗,大南街190號,塘尾大南街190號,22.327186,114.163532
深水埗,大南街192號 漢發麵家,漢發麵家,22.327222,114.163483
深水埗,大南街345號,深水埗大南街345號,22.329561,114.159969
深水埗,大坑西新邨民樂樓,大坑西邨,22.3323933,114.1696201
深水埗,大埔道 快樂大廈 客家好棧,客家好棧,22.3241187,114.2175043
深水埗,大埔道43號,塘尾大埔道43號,22.3301954,114.1659644
深水埗,大埔道77號,大埔道77號,22.3322203,114.1641512
深水埗,天悅廣場,長沙灣天悅廣場,22.3350001,114.1605063
深水埗,奇華工業大廈 奇華小廚,奇華小廚,22.338327,114.147745
深水埗,好發洋樓,好發洋樓,22.4420002,114.0265469
深水埗,宏德大廈,宏德大廈,22.328881,114.143179
深水埗,富昌商場 麥當勞,麥當勞,22.3271194,114.1551469
深水埗,富昌邨富旺樓,富昌邨富旺樓,22.3289815,114.1547575
深水埗,寶熙苑富熙閣,寶熙苑商場,22.3372222,114.1594444
深水埗,寶血醫院,寶血醫院（明愛）,22.3338708,114.1617508
深水埗,寶豐大廈,寶豐大廈,22.327269,114.161887
深水埗,寶豐大樓,寶豐大廈,22.327269,114.161887
深水埗,寶麗苑寶康閣,林錦華註冊中醫,22.33813,114.158153
深水埗,巴域居,巴域居,22.332338,114.164892
深水埗,巴域街 63號,巴域街63號,22.332627,114.164337
深水埗,巴域街53-55號,元洲巴域街53號,22.332116,114.165153
深水埗,常福大廈,常福大廈,22.3322384,114.162723
深水埗,幸福邨福月樓,幸福邨福月樓,22.3352468,114.1537357
深水埗,廣發唐樓,好景唐樓,22.328764,114.165652
深水埗,德富大廈,德富大廈,22.328787,114.159022
深水埗,德讚中心,德讚中心,22.3235805,114.1624676
深水埗,快樂大廈 客家好棧,客家好棧,22.3241187,114.2175043
深水埗,怡閣苑怡康閣,怡閣苑怡康閣,22.3326502,114.1587287
深水埗,恒寧閣,恆寧閣,22.337083,114.158855
深水埗,新北河大樓 麥當勞,麥當勞,22.329924,114.162549
深水埗,新高登電腦廣場,Gaming HK Ltd,22.3321122,114.1620031
深水埗,昇悅商場,昇悅商場,22.3345875,114.146854
深水埗,明勝樓,明勝樓,22.326631,114.166577
深水埗,星匯居1座,星匯居1座,22.3330394,114.1522494
深水埗,時尚華庭,時尚華庭,22.3292551,114.1568941
深水埗,東京街嘉利閣,嘉利閣,22.3298654,114.1600756
深水埗,東京街嘉莉閣,嘉莉閣,22.3374822,114.1601599
深水埗,東廬大樓,東廬大樓B座,22.330639,114.1661758
深水埗,東廬大樓A座,東廬大樓B座,22.330639,114.1661758
深水埗,東蘭閣 龍寶酒家,龍寶酒家,22.3353935,114.1595095
深水埗,桂祥大廈 大家樂,大家樂,22.331008,114.1616922
深水埗,榮吉工業大廈B座 開花結果,開花結果,22.3388746,114.1490392
深水埗,榮昌邨榮俊樓,榮昌邨榮俊樓,22.3290203,114.1557561
深水埗,榮華樓,榮華樓,22.328663,114.164728
深水埗,欽州街56C號興隆大廈,興隆大廈,22.3302818,114.1598811
深水埗,欽州街56號B1,B1,22.3306136,114.1603078
深水埗,永康街63號 Global Gateway Tower,Global Gateway Tower,22.3392916,114.148667
深水埗,永盛工業大廈,Les Petit Four 永盛工業大廈l,22.33899,114.149437
深水埗,永隆街12號,長沙灣永隆街12號,22.336713,114.157852
深水埗,汝洲街276號 肥仔記,肥仔記點心,22.330635,114.160833
深水埗,泓景匯,泓景匯,22.3344105,114.1479763
深水埗,海盈邨 太子茶餐廳,太子茶餐廳,22.3287733,114.1477327
深水埗,海關船隊基地,香港海關船隊基地,22.3248555,114.1422649
深水埗,海麗商場,海麗商場,22.332315,114.1472078
深水埗,海麗邨海慧樓,海麗邨,22.3323083,114.146444
深水埗,海麗邨海智樓,海麗邨,22.3323083,114.146444
深水埗,深水埗榮華樓,榮華樓,22.3286246,114.1646273
深水埗,深水埗鑽石樓,鑽石樓,22.3284352,114.1649326
深水埗,港鐵南昌站,港鐵南昌站,22.328249,114.153523
深水埗,潮流工貿中心 馬德里餐廳,馬德里餐廳,22.3381316,114.147057
深水埗,澤安邨榮澤樓,可澤耆英鄰舍中心,22.340551,114.163792
深水埗,澤安邨麗澤樓,澤安邨麗澤樓,22.3402769,114.1644183
深水埗,營盤街128號元安大廈,元安大廈,22.3344973,114.1607026
深水埗,營盤街130號 元安大廈,元安大廈,22.334665,114.1606242
深水埗,瑞麗閣 麥當勞,麥當勞,22.33679,114.158667
深水埗,田氏企業中心,田氏企業中心,22.333837,114.153377
深水埗,界限街恒順大樓,恆順大樓,22.326575,114.166975
深水埗,白田五區,白田邨,22.3351616,114.1651808
深水埗,白田邨11座,白田邨,22.3351567,114.1673695
深水埗,白田邨13座,白田邨,22.3351567,114.1673695
深水埗,白田邨翠田樓,白田邨翠田樓,22.337683,114.167471
深水埗,白田邨麗田樓,白田邨,22.3351567,114.1673695
深水埗,白田邨麗田樓,白田邨麗田樓,22.3353462,114.1674837
深水埗,百老匯街25號 美味小廚茶餐廳,美味小廚茶餐廳,22.3366869,114.1362263
深水埗,百老匯街5號美孚新邨1期,上海商業銀行美孚新邨(第一期)分行,22.336446,114.138315
深水埗,百老匯街73號 京都薈 ,京都薈,22.3360696,114.1409017
深水埗,百老匯街73號 京都薈,京都薈,22.3360696,114.1409017
深水埗,盈暉臺盈暉家居城,盈暉臺,22.341682,114.13752
深水埗,石安大廈,（已搬往荔枝角）卡帕中東肚皮舞坊 Mystery Belly Dance Studio 專業中東肚皮舞學校,22.329019,114.1649201
深水埗,石硤尾商場,石硤尾邨,22.3326202,114.1674065
深水埗,石硤尾邨19座,石硤尾邨19座,22.332045,114.166948
深水埗,石硤尾邨24座,石硤尾邨24座,22.333149,114.1653336
深水埗,石硤尾邨商場,石硤尾街市,22.3317324,114.1662134
深水埗,石硤尾邨服務設施大樓,石硤尾邨服務設施大樓,22.3331964,114.1671262
深水埗,石硤尾邨美亮樓,石硤尾邨美亮樓,22.33244,114.16768
深水埗,石硤尾邨美映樓,美映樓,22.334109,114.1680943
深水埗,石硤尾邨美盛樓,石硤尾邨美盛樓,22.333183,114.166773
深水埗,石硤尾邨美笙樓,石硤尾邨美笙樓,22.3336487,114.1661008
深水埗,祥輝大廈,祥輝大廈,22.33471,114.162161
深水埗,福僑大樓,富昌邨,22.3285042,114.1546509
深水埗,福安大廈,福安大廈,22.330815,114.163455
深水埗,福榮街124號,深水埗福榮街124號,22.3326058,114.1620677
深水埗,福榮街71號,福榮街71號,22.330627,114.1642325
深水埗,福榮街85A號,福榮街85號,22.33086,114.1638609
深水埗,福至工業大廈 瑞士咖啡室,瑞士咖啡室,22.3385818,114.1480692
深水埗,福華街 135號,福華街135號,22.3311523,114.1625605
深水埗,福華街104號 圓方餃子粥麵,圓方餃子粥麵,22.3311346,114.1630312
深水埗,福華街135號,福華街135號,22.3311523,114.1625605
深水埗,福華街157號,海峯,22.3328185,114.1608976
深水埗,福華街88-90號福安大廈,福安大廈,22.3309005,114.1634662
深水埗,秋創商業大廈,秋創商業大廈,22.3403873,114.1542044
深水埗,美孚廣場 京都薈,京都薈,22.3360696,114.1409017
深水埗,美孚廣場,美孚廣場,22.335967,114.141406
深水埗,美孚新邨 美心MX,Maxim MX,22.3350437,114.1485561
深水埗,美孚新邨1期,上海商業銀行美孚新邨(第一期)分行,22.336446,114.138315
深水埗,美孚新邨1期23座,美孚新邨六期,22.339346,114.140029
深水埗,美孚新邨1期百老匯街5號,上海商業銀行美孚新邨(第一期)分行,22.336446,114.138315
深水埗,美孚新邨5期,美孚新邨,22.3358773,114.1411797
深水埗,美孚新邨6期,美孚新邨六期,22.339346,114.140029
深水埗,美孚新邨三期,美孚新邨,22.3358773,114.1411797
深水埗,美孚新邨二期 味味佳餐廳,味味佳餐廳,22.3363112,114.1399998
深水埗,美孚新邨六期,美孚新邨六期,22.339346,114.140029
深水埗,美孚新邨四期 京都會酒樓,京都薈,22.3360696,114.1409017
深水埗,美孚新邨第1期,上海商業銀行美孚新邨(第一期)分行,22.336446,114.138315
深水埗,美孚新邨第6期,美孚新邨六期,22.339346,114.140029
深水埗,美孚新邨第三期百老匯街第56、58、60及62號,美孚新邨,22.3358773,114.1411797
深水埗,美孚新邨第三期百老匯街第72及74號,美孚新邨,22.3358773,114.1411797
深水埗,美孚新邨第三期百老匯街第76及78號,美孚新邨,22.3358773,114.1411797
深水埗,美孚新邨第三期第52及54號,美孚新邨,22.3358773,114.1411797
深水埗,美孚新邨第三期第64、66、68及70號,美孚新邨,22.3358773,114.1411797
深水埗,美孚新邨第二期吉利徑21號 味味佳餐廳,味味佳餐廳,22.3363112,114.1399998
深水埗,美孚新邨第二期吉利徑7A號,美孚新邨二期吉利徑21號,22.336439,114.140118
深水埗,美孚新邨第八期百老匯街第110、112、114及116號,第八期商場,22.335382,114.1393596
深水埗,美孚新邨第八期百老匯街第126及128號,大家樂,22.3353876,114.1413771
深水埗,美孚新邨第八期第118、120、122及124號,第八期商場,22.335382,114.1393596
深水埗,美孚新邨第八期第130及132號,美孚新邨,22.3358773,114.1411797
深水埗,美孚新邨第六期,美孚新邨六期,22.339346,114.140029
深水埗,美孚新邨第四期 京都薈,京都薈,22.3360696,114.1409017
深水埗,美居中心 麥當勞,麥當勞,22.3345333,114.1602694
深水埗,美葵樓 百份百餐廳,百份百餐廳,22.3205167,114.1632339
深水埗,美葵樓 雙節棍粉麵餐廳,新聯豐粉麵家,22.3321387,114.1627097
深水埗,興隆大廈,興隆大廈,22.3302818,114.1598811
深水埗,荔枝角收押所,荔枝角收押所,22.3376106,114.1443611
深水埗,荔枝角道336號,深水埗荔枝角道336號,22.3288164,114.1604759
深水埗,荔枝角道338號,荔枝閣,22.3288839,114.1604936
深水埗,荔枝閣,荔枝閣,22.3288839,114.1604936
深水埗,荔灣街市,荔灣街市,22.3374314,114.1383028
深水埗,菁盈雅軒,青盈雅軒停車場,22.335007,114.161055
深水埗,華匯廣場,長沙灣大南西街1008號華滙廣場,22.3382652,114.1473668
深水埗,華興大廈,華興大樓,22.3287844,114.1586358
深水埗,萬事達廣場 銀龍,銀龍茶餐廳,22.3381803,114.1382929
深水埗,萬事達廣場 麥當勞,麥當勞,22.3310175,114.1598202
深水埗,萬事達廣場,萬事達廣場,22.3377508,114.1389065
深水埗,蘇屋商場,蘇屋,22.3410352,114.1565689
深水埗,蘇屋邨劍蘭樓,蘇屋,22.3410352,114.1565689
深水埗,蘇屋邨海棠樓,蘇屋邨海棠樓,22.340189,114.157628
深水埗,蘇屋邨百合樓,蘇屋邨茶花樓,22.341106,114.158186
深水埗,蘇屋邨荷花樓,蘇屋邨茶花樓,22.341106,114.158186
深水埗,西九龍中心 煌府,煌府 The Palace,22.3310919,114.1597845
深水埗,西九龍中心 牛車水餐廳,牛車水餐廳,22.3313051,114.1598371
深水埗,西九龍中心 美心西餅,美心西餅,22.3309783,114.1600762
深水埗,西九龍中心,西九龍中心,22.3310879,114.1597868
深水埗,西九龍法院大樓B座,西九龍法院大樓,22.3312583,114.1530395
深水埗,貿易廣場,貿易廣場停車場,22.336897,114.15388
深水埗,通利大廈,通利大廈,22.337208,114.146418
深水埗,通州街公園壁球中心,通州街公園壁球中心,22.3265864,114.1590214
深水埗,逸新,逸新 Novi,22.3254113,114.1664643
深水埗,醫局街德富大廈,德富大廈,22.328787,114.159022
深水埗,金百盛中心,金百盛中心,22.3389346,114.1479411
深水埗,金華大廈,金華大樓,22.3314002,114.1601134
深水埗,金陵樓,金陵樓,22.33186,114.163061
深水埗,銀河大廈 黃金冰室,黃金冰室(北河街店),22.3324148,114.1647187
深水埗,長沙灣保安道街市,保安道街市,22.3389139,114.1553393
深水埗,長沙灣天主教英文中學,長沙灣天主教英文中學,22.3387341,114.1536456
深水埗,長沙灣廣場 潮濠城酒樓,潮濠城酒樓 - 長沙灣廣場 WiFi熱點,22.337135,114.148673
深水埗,長沙灣政府合署,長沙灣政府合署,22.3319665,114.1603241
深水埗,長沙灣道252號永安大廈,永安大廈,22.331605,114.161459
深水埗,長沙灣邨長泰樓,長沙灣邨長泰樓,22.3342843,114.1565225
深水埗,長沙灣青山道381號,長沙灣青山道381號,22.338916,114.155405
深水埗,長豐大廈,長豐商業大廈,22.327116,114.166605
深水埗,青山道141號,青山道141號,22.3346096,114.1609581
深水埗,青山道152A號 德記粉麵茶餐廳,德記粉麵茶餐廳,22.33582,114.159883
深水埗,青山道202-210號興隆大廈,陳茂鈞註冊中醫,22.336722,114.158813
深水埗,青山道258號,青山道258號,22.3376166,114.1577185
深水埗,青山道260號,永隆大廈,22.3376839,114.1576372
深水埗,青山道273號,長沙灣青山道273號,22.3373204,114.1575749
深水埗,青山道281號,長沙灣青山道281號,22.337428,114.15747
深水埗,青山道305號 翠河餐廳,翠河餐廳,22.337832,114.1569594
深水埗,順寧道253-263號,李鄭屋順寧道253號,22.3370487,114.1588366
深水埗,順寧道街市,北河街街市,22.3294149,114.1607588
深水埗,順景閣,順景閣,22.334948,114.1616
深水埗,香港城市大學中國銀行(香港)綜合樓 城大食坊,中國銀行（香港）綜合樓,22.3373192,114.1717491
深水埗,香港城市大學楊建文學術樓,香港城市大學楊建文學術樓,22.3360136,114.1710438
深水埗,香港紗廠工業大廈1及2期 將軍堡,將軍堡,22.3377241,114.1486103
深水埗,高登電腦中心 潮福蒸氣火鍋,潮福蒸氣火鍋,22.3323896,114.1618615
深水埗,鴨寮街85號,塘尾鴨寮街85號,22.328098,114.164424
深水埗,鴻昌工廠大廈,鴻昌工廠大廈,22.3387924,114.1514625
深水埗,鴻裕大廈 A 座,鴻裕大廈B座,22.335342,114.160243
深水埗,鴻裕大廈,鴻裕大廈,22.3351446,114.1601917
深水埗,鴻裕大廈A座,鴻裕大廈B座,22.335342,114.160243
深水埗,麗安邨麗正樓,麗安邨4座麗正樓,22.331466,114.159095
深水埗,麗昌工廠大廈,Innovation Design Consultant Ltd.,22.339082,114.1512615
深水埗,麗翠苑麗柏閣,麗翠苑 Lai Tsui Court,22.3335277,114.1547903
深水埗,麗翠苑麗森閣,麗翠苑 Lai Tsui Court,22.3335277,114.1547903
深水埗,麗翠苑麗榕閣,麗翠苑 Lai Tsui Court,22.3335277,114.1547903
深水埗,麗閣邨麗芙樓,麗閣邨麗芙樓,22.3322473,114.1583803
深水埗,麗閣邨麗菊樓,麗閣邨麗菊樓,22.3314632,114.157823
深水埗,麗閣邨麗薇樓,麗閣邨麗薇樓,22.3321475,114.1568012
深水埗,黃竹街 15A-15C號,塘尾黃竹街15號,22.3279731,114.1648315
深水埗,黃竹街15號,塘尾黃竹街15b號,22.3281979,114.1648899
深水埗,黃金冰室 (順寧道店),黃金冰室(順寧道店),22.3370361,114.1588499
深水埗,黃金商場 潮福蒸氣火鍋,潮福蒸氣火鍋,22.3323896,114.1618615
深水埗,黃金大廈,黃金大厦,22.3319837,114.1621711
深水埗,黃金電腦商場,黃金電腦商場,22.3317623,114.1622803
深水埗,龍慶堂,龍慶堂,22.326608,114.165162
灣仔,The L. Square,The L. Square,22.2803498,114.1816424
灣仔,The Mercury NOC Coffee Co.,NOC Wanchai West,22.2756885,114.171288
灣仔,世貿中心 茶木,茶木‧台式休閒餐廳 Teawood,22.2818807,114.184041
灣仔,世貿中心,銅鑼灣告士打道280號世界貿易中心,22.2815328,114.1820302
灣仔,中國恒大中心,中國恒大中心,22.2790578,114.1694344
灣仔,中國海外大廈,灣仔中國海外大廈,22.2778337,114.1727784
灣仔,京都廣場 大快活,大快活,22.2807114,114.1830188
灣仔,依時商業大廈,依時商業大廈,22.2781521,114.1763763
灣仔,保良局金銀業貿易場張凝文學校,保良局金銀業貿易場張凝文學校,22.2752595,114.1851092
灣仔,修頓中心,修顿中心,22.2772347,114.1727549
灣仔,光明臺1座,光明臺1座,22.2775651,114.1927491
灣仔,入境事務大樓,入境事務大樓,22.2798307,114.1729018
灣仔,冠景樓,冠景樓,22.2787262,114.1809526
灣仔,利園1期,Ofée,22.278455,114.184819
灣仔,利園2期,利園商場二期,22.2786549,114.1855497
灣仔,利園一期,Ofée,22.278455,114.184819
灣仔,利榮大樓,利榮大樓,22.2774551,114.1735215
灣仔,利順大樓,利順大樓,22.2783888,114.1735447
灣仔,勝意大樓,勝意大樓,22.2771301,114.1751703
灣仔,卓信商業大廈 祥興記上海生煎包,祥興記上海生煎包,22.2770741,114.1737169
灣仔,協生大廈 雲桂川風味米線,雲桂川風味米線,22.2776679,114.1722215
灣仔,南洋酒店,南洋酒店,22.2774081,114.1803256
灣仔,南華體育會,南華體育會會所,22.2757261,114.1874021
灣仔,友光大廈,友光大廈,22.2790024,114.1808597
灣仔,合和中心 薈軒,薈軒,22.2745534,114.1719999
灣仔,名店坊 天天海南雞飯,Tian Tian Hainanese Chicken Rice,22.2819385,114.186264
灣仔,名珠城,珠城大廈,22.2810532,114.1858291
灣仔,嘉寧大廈,嘉寧大廈,22.2769645,114.1699917
灣仔,嘉景臺,嘉景台,22.2747331,114.1945371
灣仔,堅尼地道88號A座,A座,22.2725414,114.1728521
灣仔,堅拿道西10號,冠景樓,22.278725,114.180996
灣仔,大有廣場,大有廣場,22.276968,114.1747277
灣仔,大觀樓,大觀樓,22.2799209,114.1815331
灣仔,富樂樓,富樂樓,22.274152,114.1741485
灣仔,寶明大廈,寶明大廈,22.2784909,114.1835534
灣仔,尚翹峰3座,尚翹峰3座,22.2754458,114.1736841
灣仔,崇光(香港崇光百貨),崇光百貨銅鑼灣店,22.2804272,114.1843032
灣仔,希慎廣場,希慎廣場,22.2797035,114.1838445
灣仔,希雲大廈,希雲大廈,22.2781849,114.186676
灣仔,康樂商業大廈,康樂商業大廈,22.277359,114.1779981
灣仔,循道衛理聯合教會,循道衛理香港堂,22.2773899,114.1701817
灣仔,德華大廈,德華大廈,22.2778546,114.1772138
灣仔,怡和街68號 鼎泰豐,鼎泰豐,22.2793867,114.1863917
灣仔,成功樓 滾得棧,滾得棧（天后店）,22.284445,114.191765
灣仔,掃桿埔紀律人員體育及康樂會,紀律部隊人員體育及康樂會,22.2769814,114.1884537
灣仔,新鴻基中心,新鴻基中心,22.2803654,114.1769119
灣仔,昌業大廈,昌業大廈,22.2784863,114.1792023
灣仔,明豐大廈 大快活,大快活,22.2769765,114.1761456
灣仔,春園大廈,春園大廈,22.2755777,114.1725694
灣仔,春園街13號 廉記冰室,廉記冰室 Lim Kee Bing Sutt,22.276022,114.172756
灣仔,時代廣場,時代廣場,22.2781357,114.1821587
灣仔,時代廣場2期,銅鑼灣廣場二期,22.2805855,114.1822161
灣仔,木蘭苑 金鑽名軒,金鑽名軒,22.2871855,114.192006
灣仔,東亞大樓,東亞大樓,22.2779383,114.1698988
灣仔,東角中心,東角中心,22.2802873,114.1841238
灣仔,東超商業中心,東超商業中心,22.278501,114.1744741
灣仔,柏傲山6座,柏傲山6座,22.282677,114.193621
灣仔,柏寧酒店,柏寧酒店,22.2811814,114.1864262
灣仔,樂滿大廈,樂滿大廈,22.2768205,114.1686912
灣仔,樂聲大廈,樂聲大廈A座,22.2797597,114.1868144
灣仔,水星街23號 NOC Coffee Co.,NOC Mercury,22.2856779,114.1920292
灣仔,波斯富大廈,波斯富大廈,22.2787498,114.1830324
灣仔,海城洋樓 東坡豬手麵,東坡豬手麵,22.286327,114.1913524
灣仔,海港中心 Triple O's by White Spot,Triple O's,22.2796097,114.1840332
灣仔,渣甸街54-58號 樂心冰室,樂心冰室 / 新聯威餐廳,22.2792794,114.1857561
灣仔,灣仔商業中心 雅園餐廳小廚,雅園餐廳小廚,22.277162,114.176064
灣仔,灣仔帝盛酒店,香港灣仔帝盛酒店,22.274559,114.178936
灣仔,灣仔政府大樓,灣仔政府大樓,22.280301,114.172517
灣仔,灣仔街市,灣仔街市,22.2745271,114.173721
灣仔,灣仔道71號,灣仔灣仔道71號,22.276232,114.1746952
灣仔,灣仔電腦城,灣仔電腦城,22.2772562,114.1731214
灣仔,灣景中心大廈A座,灣景中心大廈A座,22.2805731,114.1762849
灣仔,熙華大廈 東園酒家宴會廳,東園酒家宴會廳,22.27773,114.1712858
灣仔,玉滿樓,玉滿樓,22.2775699,114.1750077
灣仔,珠城大廈,珠城大厦C座,22.280761,114.185978
灣仔,瑞安中心大家樂,大家樂,22.280202,114.1715128
灣仔,百利保廣場 鼎泰豐,鼎泰豐,22.2793867,114.1863917
灣仔,百旺都中心,百旺都中心,22.2755622,114.1717682
灣仔,皇室堡 東海薈• 拉斐特,東海薈 • 拉斐特,22.2804345,114.1866121
灣仔,皇悅酒店,港島皇悅酒店,22.2778068,114.1701009
灣仔,皇悦酒店,港島皇悅酒店,22.2778068,114.1701009
灣仔,福和大廈,福和大廈,22.2760632,114.1739163
灣仔,禮加大樓,禮加大樓,22.2773865,114.1868276
灣仔,禮頓中心,禮頓中心,22.2777583,114.1830798
灣仔,禮頓山3座,禮頓山3座,22.2755726,114.1845055
灣仔,禮頓道62號,禮頓山禮頓道62號,22.2773874,114.184539
灣仔,稅務大樓,印花稅署,22.2798363,114.1717108
灣仔,箕璉坊 32 號,Green Lane Hall - Quarters,22.2633737,114.1876404
灣仔,箕璉坊32號,Green Lane Hall - Quarters,22.2633737,114.1876404
灣仔,箕璉閣,箕璉閣,22.2635133,114.1896607
灣仔,經信商業大廈,經信商業大廈,22.277761,114.17973
灣仔,維寶商業大廈,維寶商業大廈,22.2803268,114.1834167
灣仔,維峰 ASAP As Simple As Possible ,ASAP as simple as possible,22.28588,114.1911772
灣仔,維峰 ASAP As Simple As Possible,ASAP as simple as possible,22.28588,114.1911772
灣仔,縉景台,縉景台,22.2865203,114.19221
灣仔,置家中心,置家中心,22.279358,114.1792898
灣仔,美暉大廈 樂樺工房,樂樺工房,22.2785395,114.1724923
灣仔,美暉大廈,美暉大廈,22.278488,114.1724997
灣仔,翡翠明珠廣場,翡翠明珠廣場,22.2808808,114.1858639
灣仔,聖保祿醫院,聖保祿醫院,22.278467,114.1882198
灣仔,聖公會聖雅各堂,香港聖公會聖雅各堂,22.2725373,114.1735364
灣仔,聯利大廈,聯利大廈,22.2761846,114.1705839
灣仔,聯星大廈,聯星大廈,22.2774947,114.1739627
灣仔,胡忠大廈 大快活,大快活,22.2742045,114.1725565
灣仔,莊士企業大廈 星月居,星月居,22.2792846,114.1798256
灣仔,莊士頓大樓,莊士敦大樓,22.2766258,114.1704989
灣仔,華懋世紀廣場,華懋世紀廣場,22.2799168,114.1785143
灣仔,萬麗海景酒店,香港萬麗海景酒店,22.281513,114.173782
灣仔,薈賢居,香港灣仔薈賢居 (如心酒店集團管理),22.2763321,114.1738698
灣仔,謝斐道482號,銅鑼灣謝斐道482號,22.280915,114.1826942
灣仔,譚臣道112號勝意大廈,約瑟校服・制服 - 灣仔,22.2771944,114.1751602
灣仔,賽馬會總部大樓,香港賽馬會,22.275501,114.181266
灣仔,越秀大廈,越秀大廈,22.2781088,114.1738002
灣仔,軒尼詩大廈,軒尼詩大廈,22.2798467,114.1830819
灣仔,軒尼詩道310-312號 快樂蜂,快樂蜂,22.2780775,114.177975
灣仔,軒尼詩道軒尼詩大廈,軒尼詩大廈,22.2798467,114.1830819
灣仔,金朝陽中心,金朝陽中心,22.2789278,114.1801819
灣仔,金都洋樓,金都洋樓停車場,22.2864914,114.1907012
灣仔,銅鑼灣廣埸二期,銅鑼灣廣場二期,22.2805855,114.1822161
灣仔,銅鑼灣廣場,Causeway Bay Centre Shopping Arcade,22.280062,114.1866816
灣仔,銅鑼灣廣場二期 名苑酒家,名苑酒家,22.280539,114.182205
灣仔,銅鑼灣廣場二期 太湖海鮮城,太湖海鮮城,22.2805578,114.1821253
灣仔,銅鑼灣街市,銅鑼灣,22.2859787,114.1914919
灣仔,養和醫院,養和醫院,22.269562,114.182962
灣仔,香港中央圖書館,香港中央圖書館展覽館,22.2801378,114.1894987
灣仔,香港會議展覽中心 大都淮揚中菜,大都淮揚,22.2811999,114.1731551
灣仔,香港會議展覽中心,香港會議展覽中心,22.283219,114.1731027
灣仔,香港萬麗海景酒店,香港萬麗海景酒店,22.281513,114.173782
灣仔,香港警察總部,灣仔香港警察總部,22.2787249,114.1659913
灣仔,香港護理學院,香港护理学院,22.2802823,114.1799308
灣仔,香港賽馬會跑馬地會所,香港賽馬會跑馬地會所,22.265586,114.186475
灣仔,香港遊艇會,香港遊艇會,22.2844774,114.1822245
灣仔,香港銅鑼灣皇冠假日酒店,Crowne Plaza Hong Kong Causeway Bay,22.2769914,114.1826942
灣仔,駱克道151號,灣仔駱克道151b號,22.2783779,114.1733405
灣仔,駱克道294號,灣仔駱克道294號,22.2785322,114.1773981
灣仔,高主教書院小學部,高主教書院小學部,22.273456,114.176215
灣仔,鵝頸街市,鵝頸街市及熟食中心,22.2780921,114.1804547
灣仔,龍濤苑1座,龍濤苑,22.278646,114.192976
荃灣,One Midtown,ONE MIDTOWN,22.3724739,114.1077178
荃灣,九龍悅來酒店,悅來酒店,22.368988,114.120796
荃灣,享和街74號,荃灣享和街74號,22.3715535,114.1117966
荃灣,仁蕙苑 秘Secret Chefs,秘 Secret Chefs-荃灣店,22.3719944,114.1107683
荃灣,傳德樓 甜心美食,甜心美食,22.3737144,114.111558
荃灣,兆和街16號 全記點心專門店,全記點心專門店,22.3720498,114.1174103
荃灣,光明大廈,光明大廈,22.3722584,114.1114673
荃灣,南豐中心,南豐中心,22.3738014,114.1163447
荃灣,南豐紗廠 新大光燈,新大光燈,22.3746678,114.1100406
荃灣,名逸居3座,名逸居3座,22.3685345,114.1200997
荃灣,和盛樓 光榮冰室,光榮冰室,22.2994675,114.1742414
荃灣,啟志樓 龍門冰室,海雀會 龍門冰室,22.3727726,114.1155424
荃灣,大窩口咸田村,咸田村,22.3720499,114.1293511
荃灣,大窩口邨富民樓,大窩口邨富民樓,22.3687384,114.1234283
荃灣,大窩口邨富貴樓,大窩口邨富貴樓,22.367273,114.125104
荃灣,大鴻輝(荃灣)中心,Walk街搵舖168,22.3701624,114.1167911
荃灣,天保大樓,天保大樓,22.3710917,114.1149976
荃灣,如心海景酒店暨會議中心,如心海景酒店暨會議中心,22.3687795,114.1126876
荃灣,安安大樓 佳坊,安安大樓,22.3688353,114.1166304
荃灣,安富大廈,安富大廈,22.3727375,114.1154853
荃灣,富利達中心,OK 便利店,22.3700421,114.1174493
荃灣,富榮大廈,富榮大廈,22.3725446,114.1157408
荃灣,寶石大廈,寶石大廈,22.3688691,114.1175883
荃灣,悅來坊 必勝客,必勝客,22.3690778,114.1207666
荃灣,悅來坊 籽苗葉泰國餐廳,籽苗葉,22.3690623,114.1207032
荃灣,悅來坊 肯德基,肯德基,22.3689335,114.1210356
荃灣,悅來坊,悅來坊,22.3688543,114.1206598
荃灣,悅來酒店 砂煲兄弟,悅來酒店,22.368988,114.120796
荃灣,悅來酒店,悅來酒店,22.368988,114.120796
荃灣,愉景新城,愉景新城,22.3764012,114.111548
荃灣,愉景新城8座,愉景新城8座,22.3764007,114.1123035
荃灣,新村街58號,荃灣新村街58號,22.369356,114.115165
荃灣,新界南總區警察總部,新界南總區警察總部,22.3710322,114.1228477
荃灣,昌樂大廈,昌樂大廈,22.3735207,114.1171575
荃灣,昌耀大廈 大家樂,大家樂,22.3717472,114.118635
荃灣,有線電視大樓,有線電視大樓,22.3727641,114.1074261
荃灣,朗逸峯1期2座,朗逸峯,22.384722,114.1090587
荃灣,梨木樹商場,梨木樹商場,22.3780848,114.1366355
荃灣,梨木樹邨健樹樓,Caritas Jockey Club Integrated Service For Young People - Lei Muk Shue,22.3787999,114.1363644
荃灣,梨木樹邨康樹樓,仁濟醫院梨木樹彩悠軒 (嚴重殘疾人士護理院),22.378818,114.136921
荃灣,梨木樹邨榮樹樓,梨木樹邨榮樹樓,22.3773613,114.1360857
荃灣,楊屋道79號,荃灣楊屋道79號,22.3681554,114.1153975
荃灣,楊屋道市政大廈,楊屋道市政大廈,22.36906,114.114597
荃灣,樂悠居,樂悠居,22.366371,114.1181331
荃灣,永安樓 兆和茶餐廳,兆和茶餐廳,22.3718808,114.1177432
荃灣,汀蘭居,汀蘭居,22.3676821,114.0922414
荃灣,海之戀商場 Ruby Tuesday,Ruby Tuesday,22.3678139,114.1102096
荃灣,海之戀商場,NGS FUN STATION (OP MALL/海之戀商場),22.3680845,114.1106576
荃灣,海天豪苑,海天豪苑,22.3701469,114.1149047
荃灣,海濱花園 金莎堡茶餐廳,金莎堡茶餐廳,22.3628174,114.1137413
荃灣,海濱花園海明閣,海濱花園11座海明閣,22.361345,114.112984
荃灣,海濱花園海豐閣,海濱花園海豐閣,22.361249,114.113615
荃灣,海濱花園海逸閣,海濱花園19座海逸閣,22.361851,114.114003
荃灣,海濱花園海雲閣,海雲閣,22.3616125,114.1122894
荃灣,海濱花園海霞閣,海濱花園海霞閣,22.361763,114.112789
荃灣,海灣花園1座,海灣花園1座,22.3645915,114.1134879
荃灣,海韻花園,海韻花園,22.368432,114.061637
荃灣,海韻花園3座,海韻花園3座,22.3684727,114.061646
荃灣,海韻花園商場,海韻花園商場,22.3678555,114.0609395
荃灣,港鐵荃灣西站,港鐵荃灣西站,22.3680639,114.1108726
荃灣,灣景花園1座,灣景花園1座,22.3689456,114.098577
荃灣,爵悅庭,爵悅庭,22.3667885,114.1164626
荃灣,爵悅庭南爵軒,爵悅庭南爵軒,22.3669032,114.1166698
荃灣,珀麗灣5期27座,珀麗灣,22.3532151,114.0614369
荃灣,皇廷廣場,Waylun Warehouse 自取點,22.3733508,114.1095164
荃灣,石圍角邨商場,石圍角商場,22.3753206,114.1241903
荃灣,石圍角邨石桃樓,石圍角邨石桃樓,22.3751398,114.1219651
荃灣,石圍角邨石芳樓 廣發茶餐廳,廣發茶餐廳,22.3743819,114.123741
荃灣,石圍角邨石蓮樓,石圍角邨石蓮樓,22.3752442,114.1228244
荃灣,碧堤半島7座,碧堤半島7座,22.366914,114.0608834
荃灣,祈德尊新邨A座,祈德尊新邨,22.3703158,114.1102987
荃灣,福來邨永樂樓,福來邨永樂樓,22.3739127,114.1142544
荃灣,福來邨永泰樓,福來邨永泰樓,22.3731137,114.1137899
荃灣,綠楊坊,Luk Yeung Galleria,22.3730212,114.119205
荃灣,荃威花園E座,荃威花園E座,22.3787494,114.1045925
荃灣,荃威花園F座,荃威花園F座,22.3772138,114.1028506
荃灣,荃威花園商場1期,荃威花園,22.3783333,114.1036111
荃灣,荃德花園 今福上海美食坊,Jinfu Shanghai Food Square,22.3760799,114.1067335
荃灣,荃新天地 牛陣,牛陣,22.3703604,114.1139723
荃灣,荃新天地 羅麥記,羅麥記-青衣城店,22.3587348,114.1082173
荃灣,荃新天地,荃新天地,22.3700655,114.1138278
荃灣,荃景圍胡忠游泳池,荃景圍胡忠游泳池,22.377972,114.1042674
荃灣,荃灣中心南京樓,荃灣中心南京樓,22.3782477,114.1081925
荃灣,荃灣千色匯 II,荃灣千色匯,22.3706219,114.1177482
荃灣,荃灣千色匯 稻香．茶居,荃灣千色匯,22.3706219,114.1177482
荃灣,荃灣千色匯,荃灣千色匯,22.3706219,114.1177482
荃灣,荃灣千色匯I,荃灣千色匯,22.3706219,114.1177482
荃灣,荃灣千色匯II,荃灣千色匯 II,22.3713187,114.1189884
荃灣,荃灣天主教小學,荃灣天主教小學,22.3691427,114.1194857
荃灣,荃灣帝盛酒店,帝盛酒店,22.3706522,114.1294527
荃灣,荃灣廣場 Outback Steakhouse,Outback Steakhouse Hong Kong - Tsuen Wan Plaza,22.3704413,114.1113744
荃灣,荃灣廣場 鴻星中菜,鴻星海鮮酒家,22.3709919,114.1115399
荃灣,荃灣廣場,荃灣廣場,22.370821,114.1112277
荃灣,荃灣街市,荃灣街市,22.371343,114.11719
荃灣,荃薈 薩莉亞意式餐廳,薩莉亞,22.3685671,114.1213182
荃灣,荃豐中心,荃豐中心,22.3720028,114.1191781
荃灣,萬景峯1座,萬景峯,22.3706748,114.1141282
荃灣,萬景峯5座,萬景峰5座,22.3690638,114.1135171
荃灣,萬景峯第一座,萬景峯,22.3706748,114.1141282
荃灣,葵喜街停車場,葵喜街(荃灣路旁)停車場,22.357044,114.122333
荃灣,象山商場,象山商場,22.3785521,114.1301092
荃灣,象山邨秀山樓,象山邨秀山樓,22.378753,114.13157
荃灣,象山邨翠山樓,葵涌象鼻山路象山邨翠山樓,22.3788091,114.1279283
荃灣,路德圍48號嘉新大廈,新都醫務中心 (荃灣),22.3727505,114.1160915
荃灣,達貿中心,達貿中心停車場,22.3745356,114.1081579
荃灣,金熊工業中心,金熊工業中心,22.3724726,114.1081693
荃灣,順力工業大廈,順力工業大廈,22.3669905,114.1189033
荃灣,香港港安醫院 - 荃灣,荃灣港安醫院,22.3764929,114.1041048
荃灣,香港港安醫院,荃灣港安醫院,22.3764929,114.1041048
荃灣,香港港安醫院－荃灣,荃灣港安醫院,22.3764929,114.1041048
荃灣,香車街街市,香車街街市及熟食中心,22.3732905,114.1115602
荃灣,鹹田村43號,河背村43號,22.371549,114.127408
荃灣,鹹田街43號,荃灣鹹田街43號,22.36912,114.117615
荃灣,麗城花園2期1座,致誠室內設計,22.371662,114.101492
荃灣,麗城花園2期2座,致誠室內設計,22.371662,114.101492
荃灣,麗城花園2期3座,麗城花園二期3座,22.3713502,114.1002028
荃灣,麗城花園2期6座,麗城花園二期6座,22.3718085,114.0997848
荃灣,麗城花園第1期,致誠室內設計,22.371662,114.101492
葵青,IPLACE,iPlace,22.3601536,114.1349241
葵青,下葵涌分科診所及特殊教育服務中心,下葵涌分科診所及特殊教育服務中心,22.3523147,114.1280944
葵青,中國招商局物流中心,中國招商局物流中心China merchants logistics centre,22.3338247,114.1112788
葵青,佛羅倫斯小鎮,香港佛羅倫斯小鎮,22.360949,114.1323005
葵青,北葵涌街市,北葵涌公共圖書館暨北葵涌街市,22.3703644,114.1389658
葵青,名賢大樓,名賢大樓,22.3672491,114.1353657
葵青,嘉翠園1座,嘉翠園1座,22.3612736,114.1364805
